id,clee,nom_estab,raz_social,codigo_act,nombre_act,per_ocu,tipo_vial,nom_vial,tipo_v_e_1,nom_v_e_1,tipo_v_e_2,nom_v_e_2,tipo_v_e_3,nom_v_e_3,numero_ext,letra_ext,edificio,edificio_e,numero_int,letra_int,tipo_asent,nomb_asent,tipoCenCom,nom_CenCom,num_local,cod_postal,cve_ent,entidad,cve_mun,municipio,cve_loc,localidad,ageb,manzana,telefono,correoelec,www,tipoUniEco,latitud,longitud,fecha_alta
9020860,14120711311000163000000000U7,380 EVENTOS,,812990,Otros servicios personales,0 a 5 personas,CALLE,VIOLETA,OTRO(ESPECIFIQUE),NINGUNO,CALLE,SAN JORGE,CALLE,GLADIOLA,336.0,,,,,,COLONIA,AGRICOLA,,,,45236.0,14,Jalisco,120,Zapopan,1,Zapopan                                                                                                       ,2524,2,3315146042.0,,WWW.380EVENTOS.COM,Fijo,20.61771812,-103.43175618,2019-11
1685733,14039812990001561000000000U2,ADOGS STYLE,,812990,Otros servicios personales,0 a 5 personas,CALLE,MANUEL R ALATORRE,CALLE,ANA MARIA SANCHEZ,CALLE,LAURA APODACA,CALLE,LORETO M. MENDEZ,4123.0,,,,0.0,,COLONIA,TETLAN,,,,44820.0,14,Jalisco,39,Guadalajara,1,Guadalajara                                                                                                   ,5173,32,3315318578.0,,,Fijo,20.64868727,-103.28076963,2014-12
8742919,14120722320000351000000000U6,AGENCIA DE EVENTOS PROMOTEX,,812990,Otros servicios personales,0 a 5 personas,CALLE,VOLCAN COFRE DE PEROTE,CALLE,VOLCAN TANCITARO,CALLE,VOLCAN DE COLIMA,CALLE,VOLCAN JORULLO,1993.0,A,,,0.0,,COLONIA,COLLI URBANO,,,,45070.0,14,Jalisco,120,Zapopan,1,Zapopan                                                                                                       ,4431,19,,,,Fijo,20.64654423,-103.43473124,2019-11
10163384,14098812990000441000000000U4,ALEX FUTURO,,812990,Otros servicios personales,0 a 5 personas,CALLE,ROSA DE CASTILLA,CALLE,BELEN,CALLE,LIRIO,CALLE,ROSA DE CASTILLA,103.0,,FRANCISCO MARQUEZ,PASILLO,46.0,,MANZANA,ROSA DE CASTILLA,MERCADO PUBLICO,FRANCISCO MARQUEZ,46,45606.0,14,Jalisco,98,San Pedro Tlaquepaque,1,Tlaquepaque                                                                                                   ,1951,41,3317437643.0,,,Fijo,20.60038455,-103.38761584,2024-11
11135008,14097812990000261000000000S8,AMAROK ESTETICA CANINA,SMARTDOGAMRK  SA DE CV,812990,Otros servicios personales,0 a 5 personas,BOULEVARD,BOSQUES DE SANTA ANITA,PRIVADA,NINGUNO,PRIVADA,NINGUNO,CALLE,CAMINO A LAS MORAS,211.0,,CENTRO Y PLAZA COMERCIAL SIN NOMBRE,PLANTA BAJA,4.0,,COLONIA,SAN AGUSTIN,CENTRO Y PLAZA COMERCIAL,CENTRO Y PLAZA COMERCIAL SIN NOMBRE,SN,45645.0,14,Jalisco,97,Tlajomulco de Zúńiga,25,San Agustín                                                                                                   ,0994,1,,AMAROKSANTANITA@GMAIL.COM,,Fijo,20.56493613,-103.47649015,2024-11
1836842,14039465911001031000000000U2,ANIMAL LAND,,812990,Otros servicios personales,0 a 5 personas,CALLE,EJIDO,CALLE,LINDA VISTA,CALLE,EUROPA,CALLE,ROSA NAVARRO,640.0,,,,0.0,,COLONIA,OLIMPICA,,,,44810.0,14,Jalisco,39,Guadalajara,1,Guadalajara                                                                                                   ,2287,1,,,,Fijo,20.65299774,-103.30725429,2010-07
1684700,14039812990001541000000000U4,ANIMAL NATURE,,812990,Otros servicios personales,0 a 5 personas,CALLE,JUSTO CORRO,CALLE,JOSE MARIA CASTAŃOS,CALLE,RAMOS ARIZPE,AVENIDA,PRESIDENTES,2222.0,A,,,0.0,,SECCION,OLIMPICA,,,,44880.0,14,Jalisco,39,Guadalajara,1,Guadalajara                                                                                                   ,2268,3,,,,Fijo,20.64939356,-103.31288576,2014-12
1689391,14039812990001211000000000U4,ANIMAL NATURE,,812990,Otros servicios personales,6 a 10 personas,CALLE,SALVADOR LOPEZ CHAVEZ,AVENIDA,5 DE FEBRERO,CALLE,RIO TUXPAN,CALLE,RIO PAPALOAPAN,1095.0,,,,0.0,,COLONIA,OLIMPICA,,,,44430.0,14,Jalisco,39,Guadalajara,1,Guadalajara                                                                                                   ,3849,18,3336192758.0,ANIMAL_NATURE_VET@OUTLOOK.COM,,Fijo,20.65636781,-103.33080169,2014-12
1799745,14039812990001581000000000U0,ARCANOS MAYORES,,812990,Otros servicios personales,0 a 5 personas,AVENIDA,MEXICO,CALLE,AMADO NERVO,AVENIDA,AVENIDA DE LAS AMERICAS,CALLE,MANUEL CABALLERO,2285.0,,,,0.0,,COLONIA,LADRON DE GUEVARA,,,,44600.0,14,Jalisco,39,Guadalajara,1,Guadalajara                                                                                                   ,1306,9,3336169442.0,,,Fijo,20.67901991,-103.3745251,2014-12
8982548,14039812990001631000000000U3,BARBER CAN,,812990,Otros servicios personales,0 a 5 personas,CALLE,MANUEL M PONCE,CALLE,ENRIQUE GRANADOS,CALLE,MIGUEL BERNAL,CALLE,RICARDO PALMERIN,155.0,,,,0.0,,COLONIA,TETLAN,,,,44810.0,14,Jalisco,39,Guadalajara,1,Guadalajara                                                                                                   ,4512,24,3328132872.0,,,Fijo,20.65863144,-103.29335397,2019-11
1696845,14120812990000851000000000U6,BESTER FREUND HOTEL PARA PERROS,,812990,Otros servicios personales,0 a 5 personas,CALLE,VOLCAN PARICUTIN,CALLE,VOLCAN VESUBIO,CALLE,VOLCAN TANCITARO,CALLE,VOLCAN POPOCATEPETL,6194.0,,,,0.0,,COLONIA,COLLI URBANO,,,,45070.0,14,Jalisco,120,Zapopan,1,Zapopan                                                                                                       ,4431,4,,,,Fijo,20.64343061,-103.4349776,2014-12
10854307,14120812990001511000000000U5,BLACK DOG VETERINARIA,,812990,Otros servicios personales,0 a 5 personas,CALLE,SAGITARIO,CALLE,CRUZ DEL SUR,CALLE,ALIOTH,CALLE,CARNERO,3780.0,A,,,,,COLONIA,LA CALMA,,,,45070.0,14,Jalisco,120,Zapopan,1,Zapopan                                                                                                       ,0706,13,3314271304.0,,,Fijo,20.63241024,-103.41844148,2024-11
7867316,14101463215000671000000000U2,BODEGA DE ARTESANIAS,,812990,Otros servicios personales,0 a 5 personas,CALLE,SANTOS DEGOLLADO,CALLE,MATAMOROS,CALLE,CRUZ BLANCA,CALLE,JAVIER MINA,211.0,,,,0.0,,COLONIA,CENTRO,,,,45400.0,14,Jalisco,101,Tonalá,1,Tonalá                                                                                                        ,0927,29,3314113004.0,,,Fijo,20.6207802,-103.24645616,2019-11
7113765,14120812990001001000000000U7,BUBBLE CAN ESTETICA CANINA,,812990,Otros servicios personales,0 a 5 personas,CALLE,GALAXIA,CALLE,PISCIS,CALLE,SAGITARIO,CALLE,PASEO DEL ROCIO,4055.0,,,,0.0,,COLONIA,LOMAS ALTAS,,,,45128.0,14,Jalisco,120,Zapopan,1,Zapopan                                                                                                       ,2350,28,3310613894.0,,,Fijo,20.68333842,-103.40921225,2019-11
10748185,14039812990002381000000000U4,CAFE Y CARTAS,,812990,Otros servicios personales,0 a 5 personas,CALLE,SOTO Y GAMA,CALLE,ADOLFO PALACIO,CALLE,ANGEL MARTINEZ,CALLE,BENIGNO ABUNDIS,1217.0,B,,,,,COLONIA,HUENTITAN,,,,44240.0,14,Jalisco,39,Guadalajara,1,Guadalajara                                                                                                   ,4442,3,,,,Fijo,20.72187121,-103.33171773,2024-11
11071928,14039812990002191000000000U7,CASA DE CITAS,,812990,Otros servicios personales,0 a 5 personas,CALLE,ALVARO OBREGON,CALLE,CASTELLANOS Y TAPIA,CALLE,BASILIO BADILLO,AVENIDA,JAVIER MINA,1301.0,,,,,,COLONIA,LA PENAL,,,,44730.0,14,Jalisco,39,Guadalajara,1,Guadalajara                                                                                                   ,1683,20,,,,Fijo,20.667624,-103.31732308,2024-11
11245501,14039812990002321000000000U0,CASA DE CITAS,,812990,Otros servicios personales,0 a 5 personas,CALLE,CASTELLANOS Y TAPIA,CALLE,ALVARO OBREGON,AVENIDA,JAVIER MINA,CALLE,BASILIO BADILLO,62.0,,,,,,COLONIA,LA PENAL,,,,44730.0,14,Jalisco,39,Guadalajara,1,Guadalajara                                                                                                   ,1683,20,,,,Fijo,20.66779641,-103.31731513,2024-11
8694182,14039434311002531000000000U1,CASA DE CITAS,,812990,Otros servicios personales,0 a 5 personas,CALLE,GIGANTES,CALLE,BASILIO BADILLO,CALLE,CASTELLANOS Y TAPIA,CALLE,ALVARO OBREGON,1313.0,,,,0.0,,COLONIA,LA PENAL,,,,44730.0,14,Jalisco,39,Guadalajara,1,Guadalajara                                                                                                   ,1683,19,,,,Fijo,20.66656919,-103.3176212,2019-11
9850840,14039812990002362000000000U4,CASA DE CITAS,,812990,Otros servicios personales,6 a 10 personas,CALLE,12 DE OCTUBRE,CALLE,ANTONIO TELLO,CALLE,EDISON,CALLE,GOMEZ FARIAS,405.0,,,,,,COLONIA,LA LOMA,,,,44410.0,14,Jalisco,39,Guadalajara,1,Guadalajara                                                                                                   ,1965,12,,,,Fijo,20.66570451,-103.31901025,2024-11
10103122,14039812990002342000000000U6,CASA DE CITAS,,812990,Otros servicios personales,6 a 10 personas,CALLE,CASTELLANOS Y TAPIA,CALLE,ALVARO OBREGON,AVENIDA,JAVIER MINA,CALLE,BASILIO BADILLO,64.0,,,,,,COLONIA,LA PENAL,,,,44730.0,14,Jalisco,39,Guadalajara,1,Guadalajara                                                                                                   ,1683,20,,,,Fijo,20.66787838,-103.31727738,2024-11
10055566,14039812990002411000000000U9,CENTRO DE CURACIONES,,812990,Otros servicios personales,0 a 5 personas,CALLE,MIGUEL TOPETE,CALLE,ENRIQUE OSORNIO,CALLE,FRANCISCO OSORNIO,CALLE,RICARDO PALACIOS,4138.0,B,,,,,COLONIA,EL CARMEN,,,,44980.0,14,Jalisco,39,Guadalajara,1,Guadalajara                                                                                                   ,5417,11,3331838356.0,,,Fijo,20.62375012,-103.38465719,2024-11
10077430,14120812990001531000000000U3,CENTRO ESOTERICO LA LUZ,,812990,Otros servicios personales,0 a 5 personas,CALLE,HIDALGO,CALLE,ALDAMA,PRIVADA,ZARAGOZA,PRIVADA,ALLENDE,475.0,C,,,0.0,,COLONIA,LINDA VISTA,,,,46169.0,14,Jalisco,120,Zapopan,1,Zapopan                                                                                                       ,0392,30,3336245859.0,,,Fijo,20.72239559,-103.3957936,2024-11
7040238,14039812990001761000000000U8,CENTRO ESOTERICO SIN NOMBRE,,812990,Otros servicios personales,0 a 5 personas,CALLE,MIGUEL OROZCO CAMACHO,CALLE,LUIS COVARRUBIAS,AVENIDA,PATRIA,CALLE,OTHON BLANCO CACERES,3947.0,,,,0.0,,COLONIA,LOPEZ PORTILLO,,,,44960.0,14,Jalisco,39,Guadalajara,1,Guadalajara                                                                                                   ,539A,19,,,,Fijo,20.62426127,-103.37830337,2019-11
10509582,14120812990001331000000000U8,CENTRO ORIENTACION NATURISTA,,812990,Otros servicios personales,0 a 5 personas,CALLE,MORELOS,CALLE,GRANADITOS,CALLE,EMILIANO ZAPATA,CALLE,GRANADITOS,17.0,,,,,,COLONIA,EMILIANO ZAPATA,,,,45190.0,14,Jalisco,120,Zapopan,1,Zapopan                                                                                                       ,0369,24,,,,Fijo,20.71874943,-103.3514427,2024-11
11145219,14039812990002281000000000U6,CENTRO SATHYA SAI GUADALAJARA,CENTRO SATHYA SAI GUADALAJARA AR,812990,Otros servicios personales,0 a 5 personas,CALLE,FRANCISCO I MADERO,CALLE,ENRIQUE GONZALEZ MARTINEZ,AVENIDA,8 DE JULIO,CALLE,PRISCILIANO SANCHEZ,517.0,,,,,,COLONIA,CENTRO,,,,44100.0,14,Jalisco,39,Guadalajara,1,Guadalajara                                                                                                   ,4550,11,,,,Fijo,20.67342734,-103.3517407,2024-11
9885051,14039812990002151000000000U1,CHAMAN DAVID,,812990,Otros servicios personales,0 a 5 personas,CALLE,IGNACIO RAMIREZ,CALLE,HERRERA Y CAIRO,CALLE,MANUEL ACUŃA,CALLE,GENERAL CORONADO,461.0,,,,,,COLONIA,SANTA TERESITA,,,,44600.0,14,Jalisco,39,Guadalajara,1,Guadalajara                                                                                                   ,1096,24,,,,Fijo,20.68345273,-103.36374547,2024-11
10156309,14039812990002271000000000U7,CHARLY S HOUSE,,812990,Otros servicios personales,0 a 5 personas,CALLE,SAN ANDRES,CALLE,AGUSTIN BANCALARI,CALLE,MANUEL MARTINEZ VALADEZ,CALLE,GIGANTES,2551.0,,,,0.0,,COLONIA,OLIMPICA,,,,44810.0,14,Jalisco,39,Guadalajara,1,Guadalajara                                                                                                   ,2056,8,,,,Fijo,20.66182209,-103.30320523,2024-11
1671962,14039812990001021001000000U7,CLINICA VETERINARIA DEL FRESNO,,812990,Otros servicios personales,0 a 5 personas,CALLE,MEMBRILLO,CALLE,LIMON,CALLE,GUAMUCHIL,CALLE,CIPRES,2148.0,,,,0.0,,COLONIA,EL FRESNO,,,,44909.0,14,Jalisco,39,Guadalajara,1,Guadalajara                                                                                                   ,2357,18,3318177047.0,CLINICAVETERINARIADELFRESNO@HOTMAI.COM,,Fijo,20.6600016,-103.37312675,2014-12
1684564,14039812990001221000000000U3,CLINICA VETERINARIA Y ESTETICA CANINA,,812990,Otros servicios personales,0 a 5 personas,CALLE,DIONISIO RODRIGUEZ,CALLE,DEMOCRITO,CALLE,IRAN,CALLE,JOSEFA ORTIZ DE DOMINGUEZ,3225.0,,,,0.0,,COLONIA,AGUSTIN YAŃEZ,,,,44750.0,14,Jalisco,39,Guadalajara,1,Guadalajara                                                                                                   ,1734,20,3312030394.0,,,Fijo,20.66577365,-103.29081055,2010-07
7866332,14098812990000361000000000U4,CROQUETAS YA,,812990,Otros servicios personales,0 a 5 personas,CALLE,RAMON CORONA,CALLE,CAMINO REAL DE COLIMA,CALLE,LOS NARANJOS,CALLE,CAMINO AL ARROYO,649.0,,,,0.0,,COLONIA,SANTA ANITA,,,,45600.0,14,Jalisco,98,San Pedro Tlaquepaque,14,Santa Anita                                                                                                   ,3178,5,3331501948.0,,,Fijo,20.55486446,-103.45425021,2019-11
1635025,14120532291000361010000000U8,D MOREN EVENTOS,,812990,Otros servicios personales,0 a 5 personas,AVENIDA,JESUS,AVENIDA,ACUEDUCTO,CALLE,AZUCENAS,CALLE,SAN MATEO,3297.0,,,,0.0,,COLONIA,SANTA MARGARITA,,,,45140.0,14,Jalisco,120,Zapopan,1,Zapopan                                                                                                       ,3325,12,3311094437.0,,,Fijo,20.73662119,-103.42405972,2010-07
1696366,14120812990000821011000000U9,DAREROS EVENTOS,,812990,Otros servicios personales,0 a 5 personas,CALLE,OSA MAYOR,CALLE,CRUZ DEL SUR,CALLE,ORION,CALLE,GEMELOS,5091.0,A,,,0.0,,COLONIA,LA CALMA,,,,45070.0,14,Jalisco,120,Zapopan,1,Zapopan                                                                                                       ,0706,15,3336325737.0,,,Fijo,20.63534386,-103.41998512,2014-12
11341906,14039812990002081000000000U0,DE CATEMACO VERACRUZ,,812990,Otros servicios personales,0 a 5 personas,CALLE,MANUEL ACUŃA,CALLE,BERNARDO DE BALBUENA,AVENIDA,AVENIDA DE LAS AMERICAS,CALLE,JUAN ALVAREZ,1714.0,A,,,,,COLONIA,SANTA TERESITA,,,,44600.0,14,Jalisco,39,Guadalajara,1,Guadalajara                                                                                                   ,1081,23,,,,Fijo,20.68434242,-103.37275749,2024-11
9162039,14120812990001271000000000U6,DOG CARE,,812990,Otros servicios personales,0 a 5 personas,CALLE,QUETZALCOATL,CALLE,AXAYACATL,AVENIDA,MOCTEZUMA,CALLE,NEZAHUALCOYOTL,598.0,,,,0.0,,COLONIA,CIUDAD DEL SOL,,,,45050.0,14,Jalisco,120,Zapopan,1,Zapopan                                                                                                       ,0655,3,,DOGCARE.118@GMAIL.COM,,Fijo,20.64974952,-103.40518036,2019-11
10336368,14120812990001561000000000U0,DOGGIE BOW,,812990,Otros servicios personales,0 a 5 personas,CALLE,PASEO DE LA LUNA,PRIVADA,ELITE,CALLE,CAMINO REAL DE ZAPOPAN,CALLE,PASEO DE LA LUNA,810.0,,ELITE,PLANTA BAJA,,,MANZANA,PLAZA ELITE,CENTRO Y PLAZA COMERCIAL,ELITE,5,45019.0,14,Jalisco,120,Zapopan,1,Zapopan                                                                                                       ,6743,42,3319050294.0,OSWALDOMA71EE@GMAIL.COM,,Fijo,20.71905598,-103.46080225,2024-11
11459445,14120812990001471000000000U2,EL GATO MAGICO,,812990,Otros servicios personales,0 a 5 personas,AVENIDA,FEDERALISTAS,ANDADOR,DE LAS GARDENIAS,AVENIDA,ACUEDUCTO,CALLE,VALLE DE LAS GARDENIAS,2266.0,,,,3.0,,COLONIA,JARDINES DEL VALLE,,,,45138.0,14,Jalisco,120,Zapopan,1,Zapopan                                                                                                       ,3274,5,3318632436.0,,,Fijo,20.74754425,-103.42880404,2024-11
8406045,14039812990001711000000000U3,EL RINCON DE LAS HUELLAS,,812990,Otros servicios personales,0 a 5 personas,CALLE,IGUALDAD,AVENIDA,BELISARIO DOMINGUEZ,CALLE,SANTA CATARINA,CALLE,ESPERANZA,520.0,,,,0.0,,COLONIA,LA ESPERANZA,,,,44300.0,14,Jalisco,39,Guadalajara,1,Guadalajara                                                                                                   ,0223,5,3315699557.0,,,Fijo,20.70825024,-103.31452855,2019-11
9724440,14120812990001521000000000U4,ESCUADRON DE SEGURIDAD CANINO,,812990,Otros servicios personales,0 a 5 personas,CALLE,SAN JORGE,CALLE,DALIA,CALLE,VIOLETA,CALLE,OBELISCO,221.0,,,,,,COLONIA,AGRICOLA,,,,45236.0,14,Jalisco,120,Zapopan,1,Zapopan                                                                                                       ,2524,8,3327015318.0,,WWW.ESCUADRONDESEGURIDADCANINO.COM,Fijo,20.61757009,-103.43109946,2024-11
7113216,14120812990000981000000000U1,ESCUELA CANINA AMAROK,,812990,Otros servicios personales,0 a 5 personas,AVENIDA,LAS TORRES,CALLE,LAS ESTRELLAS,CALLE,NUBES DE MARTE,CALLE,LUNA,,SN,,,4.0,,COLONIA,LA GLORIA DEL COLLI,,,,45010.0,14,Jalisco,120,Zapopan,1,Zapopan                                                                                                       ,2863,16,3321062947.0,ADMINISTRACION@AMARAKGDL.MX,WWW.AMAROKGDL.MX,Fijo,20.65892393,-103.45408955,2019-11
9968916,14098812990000431000000000U5,ESTETICA CANIA BAMBINA,,812990,Otros servicios personales,0 a 5 personas,AVENIDA,DEPORTES,CALLE,JUAN DE LA BARRERA,CALLE,CARDENAL,CALLE,JUAN ESCUTIA,9.0,,,,0.0,,COLONIA,EL VERGEL,,,,45595.0,14,Jalisco,98,San Pedro Tlaquepaque,1,Tlaquepaque                                                                                                   ,0671,28,,,,Fijo,20.59906771,-103.33502467,2024-11
11239230,14120812990001451000000000U4,ESTETICA CANICA GENTLEPET,,812990,Otros servicios personales,0 a 5 personas,AVENIDA,VALDEPEŃAS,AVENIDA,TORREMOLINOS,CALLE,PASEO DE LAS CALANDRIAS,CALLE,PASEO CARRILLERAS PONIENTE,2912.0,,,,0.0,,COLONIA,FRANCISCO VILLA,,,,45130.0,14,Jalisco,120,Zapopan,1,Zapopan                                                                                                       ,2204,2,,,,Fijo,20.75081142,-103.39930871,2024-11
10891110,14039812990002441000000000U6,ESTETICA CANINA,,812990,Otros servicios personales,0 a 5 personas,CALLE,COAHUILA,CALLE,MIGUEL GALINDO,CALLE,6 DE DICIEMBRE,CALLE,COAHUILA,1489.0,,,,,A,COLONIA,SAN MIGUEL DE MEZQUITAN,,,,44260.0,14,Jalisco,39,Guadalajara,1,Guadalajara                                                                                                   ,4103,24,3334455055.0,,,Fijo,20.70179418,-103.35667155,2024-11
1865636,14039812990000461000000000U6,ESTETICA CANINA,,812990,Otros servicios personales,0 a 5 personas,CALLE,CEREZO,CALLE,FRESNO,CALLE,PINO,CALLE,GUAMUCHIL,1449.0,,,,0.0,,COLONIA,FRESNO,,,,44900.0,14,Jalisco,39,Guadalajara,1,Guadalajara                                                                                                   ,2357,5,3314112944.0,,,Fijo,20.6580979,-103.37500595,2010-07
7152830,14120541941002821000000000U8,ESTETICA CANINA,,812990,Otros servicios personales,0 a 5 personas,CALLE,SANTA ANITA,CALLE,AGUA ESCONDIDA,CALLE,EL CAMPANARIO,CALLE,SAN ALFONSO,247.0,,,,0.0,,COLONIA,EL CAMPANARIO,,,,45609.0,14,Jalisco,120,Zapopan,1,Zapopan                                                                                                       ,340A,2,3322061562.0,,,Fijo,20.59389761,-103.43669571,2019-11
11477085,14039812990002291000000000U5,ESTETICA CANINA,,812990,Otros servicios personales,0 a 5 personas,CALLE,14,CALLE,HIGUERILLAS,CALLE,MANUEL PEREZ LETE,CALLE,ARMILLITA,0.0,SN,,,,,COLONIA,IGERLLAS,,,,44440.0,14,Jalisco,39,Guadalajara,1,Guadalajara                                                                                                   ,2592,13,3325380897.0,,,Fijo,20.63670568,-103.34898335,2024-11
11703220,14120812990001431000000000U6,ESTETICA CANINA,,812990,Otros servicios personales,0 a 5 personas,PROLONGACION,MARIANO OTERO,CALLE,FRANCISCO I. MADERO,CALLE,AZALEAS,CALLE,LAUREL,1517.0,,,,,,COLONIA,MARIANO OTERO,,,,45067.0,14,Jalisco,120,Zapopan,1,Zapopan                                                                                                       ,5209,11,3337197035.0,,,Fijo,20.62929312,-103.45370298,2024-11
9787293,14120812990001321000000000U9,ESTETICA CANINA,,812990,Otros servicios personales,0 a 5 personas,CALLE,PASEO DE LOS PERONES,CALLE,PASEO DE LOS CAMICHINES,CALLE,LECHUGA,CALLE,TOMATE,90.0,A,,,,,COLONIA,MESA DE LOS OCOTES,,,,45189.0,14,Jalisco,120,Zapopan,1,Zapopan                                                                                                       ,2134,24,,,,Fijo,20.76598337,-103.34541518,2024-11
7864879,14039541941003561000000000U1,ESTETICA CANINA,,812990,Otros servicios personales,0 a 5 personas,AVENIDA,CRUZ DEL SUR,CALLE,BARRA,CALLE,BAHIA,CALLE,ISLOTE,3150.0,B,,,,,COLONIA,SANTA EDUWIGES,,,,44580.0,14,Jalisco,39,Guadalajara,1,Guadalajara                                                                                                   ,2677,25,,,,Fijo,20.63927381,-103.39221687,2019-11
10883265,14120812990001391000000000U2,ESTETICA CANINA,,812990,Otros servicios personales,0 a 5 personas,CALLE,SIDRA,CALLE,MEZQUITE,PROLONGACION,EL COLLI,CALLE,CHABACANO,1680.0,A,,,0.0,,COLONIA,PARAISOS DEL COLLI,,,,45069.0,14,Jalisco,120,Zapopan,1,Zapopan                                                                                                       ,1691,33,3318475668.0,,,Fijo,20.64876196,-103.44864134,2024-11
11567596,14039812990002421000000000U8,ESTETICA CANINA,,812990,Otros servicios personales,0 a 5 personas,CALLE,CERRO GORDO,CALLE,MESA CENTRAL,CALLE,MESA DEL NORTE,CALLE,CERRO DE LA CAMPANA,2248.0,A,,,,,COLONIA,BELISARIO DOMINGUEZ,,,,44320.0,14,Jalisco,39,Guadalajara,1,Guadalajara                                                                                                   ,0435,22,,,,Fijo,20.7043849,-103.31779763,2024-11
7811029,14039812990001841000000000U8,ESTETICA CANINA,,812990,Otros servicios personales,0 a 5 personas,CALLE,AURELIA GUEVARA,CALLE,RUBEN RODRIGUEZ,CALLE,CANDIDO CARLIN,CALLE,JORGE DEL MORAL,3508.0,,,,,,COLONIA,TETLAN,,,,44828.0,14,Jalisco,39,Guadalajara,1,Guadalajara                                                                                                   ,5120,9,3328722130.0,,,Fijo,20.65560102,-103.2891617,2019-11
9910039,14039812990002171000000000U9,ESTETICA CANINA,,812990,Otros servicios personales,0 a 5 personas,CALLE,VOLCAN TANCITARO,CALLE,VOLCAN TOLIMAN,CALLE,VOLCAN VILLARRICA,CALLE,VOLCAN POPOCA,295.0,B,,,0.0,,COLONIA,HUENTITAN,,,,44250.0,14,Jalisco,39,Guadalajara,1,Guadalajara                                                                                                   ,3904,29,3312564389.0,,,Fijo,20.73686771,-103.31691919,2024-11
7113743,14120541941002501000000000U6,ESTETICA CANINA,,812990,Otros servicios personales,0 a 5 personas,CALLE,LOURDES,CALLE,INDUSTRIA,CALLE,JUAN MANUEL,CALLE,JUAN DIEGO,57.0,,,,0.0,,COLONIA,TEPEYAC,,,,45150.0,14,Jalisco,120,Zapopan,1,Zapopan                                                                                                       ,027A,26,,,,Fijo,20.72339221,-103.38298965,2019-11
10823533,14120812990001341000000000U7,ESTETICA CANINA,,812990,Otros servicios personales,0 a 5 personas,AVENIDA,VALLE DE ATEMAJAC,ANDADOR,DEL EUFRATES,AVENIDA,ACUEDUCTO,CALLE,VALLE DEL EUFRATES,1736.0,,,,,,COLONIA,JARDINES DEL VALLE,,,,45138.0,14,Jalisco,120,Zapopan,1,Zapopan                                                                                                       ,3274,45,3324596089.0,,,Fijo,20.74082081,-103.426052,2024-11
10298801,14101812990000341000000000U8,ESTETICA CANINA,,812990,Otros servicios personales,0 a 5 personas,CALLE,SAN FRANCISCO,CALLE,HACIENDAS DE JALISCO,CALLE,HACIENDA CIENEGA DE MATA,CALLE,HACIENDA ARROYO DE ENMEDIO,950.0,6,,,0.0,,FRACCIONAMIENTO,HACIENDA REAL,,,,45428.0,14,Jalisco,101,Tonalá,1,Tonalá                                                                                                        ,0679,82,3311154941.0,,,Fijo,20.58732953,-103.23852834,2024-11
11651744,14039812990002461000000000U4,ESTETICA CANINA,,812990,Otros servicios personales,0 a 5 personas,CALLE,LA RABIDA,CALLE,PARAGUAY,CALLE,BOLIVIA,CALLE,CARABELAS,1557.0,,,,,,COLONIA,CRUZ DEL SUR,,,,44920.0,14,Jalisco,39,Guadalajara,1,Guadalajara                                                                                                   ,2535,28,3315998809.0,,,Fijo,20.64687881,-103.37080578,2024-11
1698973,14120812990000441000000000U6,ESTETICA CANINA AGAMA,,812990,Otros servicios personales,0 a 5 personas,CALZADA,DE LOS PARAISOS,CALZADA,DE LOS ALAMOS,CALZADA,LAS PALMAS,CALZADA,DE LOS CIPRESES,7282.0,A,,,0.0,,COLONIA,CIUDAD JUDICIAL,,,,45010.0,14,Jalisco,120,Zapopan,1,Zapopan                                                                                                       ,1206,4,3314123235.0,,,Fijo,20.68201859,-103.45220813,2014-12
1698191,14120812990000671000000000U8,ESTETICA CANINA BEST FRIEND,,812990,Otros servicios personales,0 a 5 personas,CALLE,MARK TWAIN,CALLE,ERNESTO HEMINGWAY,CALLE,JOHN MILTON,CALLE,RUDYARD KIPLING,4852.0,,,,0.0,,COLONIA,JARDINES DE LA PATRIA,,,,45110.0,14,Jalisco,120,Zapopan,1,Zapopan                                                                                                       ,2948,8,,,,Fijo,20.68314113,-103.41776977,2014-12
1803688,14120812990000081000000000U0,ESTETICA CANINA CANEM,,812990,Otros servicios personales,0 a 5 personas,CALLE,VOLCAN COLIMA,CALLE,PLAYA DEL TESORO,AVENIDA,MOCTEZUMA,CALLE,VOLCAN VESUBIO,1430.0,A,,,0.0,,COLONIA,RESIDENCIAL MOCTEZUMA PONIENTE,,,,45050.0,14,Jalisco,120,Zapopan,1,Zapopan                                                                                                       ,1920,9,,CANEM.MX@GMAIL.COM,,Fijo,20.65059714,-103.43491887,2010-07
7866122,14039812990001961000000000U4,ESTETICA CANINA CHAPALITA,ESTETICA CANINA CHAPALITA SA DE CV,812990,Otros servicios personales,0 a 5 personas,CALLE,ASUNCION,CALLE,PLACERES,CALLE,LORETO,CALLE,GABRIEL TORTOLEDO,3139.0,,,,0.0,,COLONIA,CHAPALITA,,,,44500.0,14,Jalisco,39,Guadalajara,1,Guadalajara                                                                                                   ,3317,23,3313282095.0,,WWW.THELDOG.COM.MX,Fijo,20.66169424,-103.39450093,2019-11
1681528,14039812990001121000000000U5,ESTETICA CANINA CHUCHOTORIO,,812990,Otros servicios personales,0 a 5 personas,CALLE,HACIENDA MEDOCINA,CALLE,PLACIDO VEGA,CALLE,HACIENDA JARDIN,CALLE,HACIENDA LA ERRE,2474.0,,,,0.0,,COLONIA,RIO VERDE,,,,44720.0,14,Jalisco,39,Guadalajara,1,Guadalajara                                                                                                   ,4175,33,3311033964.0,,,Fijo,20.69730125,-103.28582934,2014-12
1710592,14120812990000811000000000U0,ESTETICA CANINA CLUB DE MASCOTAS,,812990,Otros servicios personales,0 a 5 personas,AVENIDA,COLINAS DEL CAPITOLIO,CALLE,COLINA CORINTIA,CALLE,COLINA DEL PALATINO,CALLE,COLINA JONICA,3367.0,,,,5.0,,COLONIA,COLINAS DE ATEMAJAC,,,,45180.0,14,Jalisco,120,Zapopan,1,Zapopan                                                                                                       ,244A,28,,,,Fijo,20.71769404,-103.36401441,2014-12
10109830,14098812990000421000000000U6,ESTETICA CANINA DRACO,,812990,Otros servicios personales,0 a 5 personas,CALLE,COLON,CALLE,RINCONADA DE LOS POETAS,CALLE,AQUILES SERDAN,CALLE,UNIVERSIDAD,168.0,A,,,,,CIUDAD,SANTA ANITA,,,,45600.0,14,Jalisco,98,San Pedro Tlaquepaque,14,Santa Anita                                                                                                   ,2019,2,3332200176.0,LAURAFSMARTINEZ@GMAIL.COM,,Fijo,20.55205598,-103.4405456,2024-11
7867081,14098812990000381000000000U2,ESTETICA CANINA EDER,,812990,Otros servicios personales,0 a 5 personas,CALLE,JOSE ROSAS,CALLE,GENERAL FACUNDO DE QUIROGA,CALLE,MANUEL J. GARCIA,CALLE,FERNANDO ARIAS DE SAAVEDRA,242.0,A,,,0.0,,COLONIA,BUENOS AIRES,,,,45606.0,14,Jalisco,98,San Pedro Tlaquepaque,1,Tlaquepaque                                                                                                   ,1843,12,,,,Fijo,20.60842471,-103.36714954,2019-11
11095835,14120812990001541000000000U2,ESTETICA CANINA ELI,,812990,Otros servicios personales,0 a 5 personas,AVENIDA,ESCOREAL,CALLE,COVADONGA,CALLE,MEDINA DEL CAMPO,CALLE,RONDA,2245.0,,,,,,COLONIA,LOMAS DE ZAPOPAN,,,,45130.0,14,Jalisco,120,Zapopan,1,Zapopan                                                                                                       ,319A,29,3311312966.0,,,Fijo,20.74354429,-103.39445017,2024-11
9902726,14098812990000451000000000U3,ESTETICA CANINA GROOMIMNG PET BOUTIQUE OH MY DOG,,812990,Otros servicios personales,0 a 5 personas,CALLE,NINGUNO,CALLE,NINGUNO,CALLE,NINGUNO,CALLE,NINGUNO,4642.0,L9,,,,,COLONIA,PARQUES COLON,,,,45608.0,14,Jalisco,98,San Pedro Tlaquepaque,1,Tlaquepaque                                                                                                   ,2377,19,,,OHMYDOG.COM,Fijo,20.61663202,-103.39409887,2024-11
10656693,14120812990001421000000000U7,ESTETICA CANINA HAPPY TAILS,,812990,Otros servicios personales,0 a 5 personas,AVENIDA,CONCHITA,AVENIDA,OBSIDIANA,CALLE,PINGUINO,CALLE,TIBURON,3768.0,A,,,0.0,,COLONIA,LOMA BONITA,,,,45088.0,14,Jalisco,120,Zapopan,1,Zapopan                                                                                                       ,3170,32,,,,Fijo,20.63855675,-103.40511205,2024-11
9595670,14039812990002181000000000U8,ESTETICA CANINA KALE,,812990,Otros servicios personales,0 a 5 personas,CALLE,MANUEL DE MIMBELA,CALLE,ALHONDIGA,CALZADA,CALZADA DEL FEDERALISMO NORTE,AVENIDA,FIDEL VELAZQUEZ SANCHEZ,1724.0,,,,,,COLONIA,FABRICA DE ATEMAJAC,,,,44218.0,14,Jalisco,39,Guadalajara,1,Guadalajara                                                                                                   ,4071,25,3321662043.0,ESTETICA.KALE5@GMAIL.COM,,Fijo,20.71023235,-103.35849178,2024-11
8420716,14039812990001701000000000U4,ESTETICA CANINA KINNDAYY,,812990,Otros servicios personales,0 a 5 personas,CALLE,EMILIO RABASA,CALLE,RAMON CASTELLANOS,AVENIDA,PLUTARCO ELIAS CALLES,CALLE,JESUS URUETA,2852.0,,,,0.0,,COLONIA,SAN ISIDRO,,,,44740.0,14,Jalisco,39,Guadalajara,1,Guadalajara                                                                                                   ,1236,12,3313835439.0,,,Fijo,20.67729744,-103.29572082,2019-11
7809915,14039812990001821000000000U0,ESTETICA CANINA KOVO,,812990,Otros servicios personales,0 a 5 personas,CALLE,ONZA,CALLE,GUINEA,AVENIDA,PRESA LAUREL,CALLE,LINGOTE,3954.0,,,,0.0,,COLONIA,TETLAN,,,,44770.0,14,Jalisco,39,Guadalajara,1,Guadalajara                                                                                                   ,4298,5,3330372874.0,ESTETITACANINAKOVO2@GMAIL.COM,,Fijo,20.66888387,-103.27586274,2019-11
11588779,14097812990000251000000000U9,ESTETICA CANINA LA CASA DE LA GALLETA,,812990,Otros servicios personales,0 a 5 personas,CALLE,CERRO DE LA SILLA,CALLE,CERRO DE SAN LUIS,CALLE,CERRO SANTA ANA,OTRO(ESPECIFIQUE),NINGUNO,319.0,,,,,,COTO,CHULA VISTA,,,,45655.0,14,Jalisco,97,Tlajomulco de Zúńiga,822,Hacienda Santa Fe                                                                                             ,1973,24,,,,Fijo,20.49414316,-103.36384688,2024-11
7099469,14097812990000171000000000U9,ESTETICA CANINA LA PERRUKERIA,,812990,Otros servicios personales,0 a 5 personas,PROLONGACION,MARIANO ESCOBEDO,CALLE,RINCONADA DEL MAIZ,CALLE,RINCONADA DEL TRIGO,PROLONGACION,MARIANO ESCOBEDO,92.0,,,,0.0,,COLONIA,MAGNOLIA,,,,45540.0,14,Jalisco,97,Tlajomulco de Zúńiga,1,Tlajomulco de Zúńiga                                                                                          ,0212,23,,,,Fijo,20.46836351,-103.43909542,2019-11
9591720,14039812990002261000000000U8,ESTETICA CANINA LARISA,,812990,Otros servicios personales,0 a 5 personas,CALLE,ISLA MILOS,CALLE,ISLA DEL COCO,CALLE,ISLA PALMIRA,CALLE,ISLA ANTIGUA,3194.0,A,,,,,COLONIA,JARDINES DE LA CRUZ,,,,44950.0,14,Jalisco,39,Guadalajara,1,Guadalajara                                                                                                   ,2709,24,,,,Fijo,20.63656028,-103.38440314,2024-11
6918947,14097541941000531000000000U5,ESTETICA CANINA MADELA,,812990,Otros servicios personales,0 a 5 personas,CALLE,ESTRELLA,CALLE,PUERTA DEL SOL,OTRO(ESPECIFIQUE),BARDA,CALLE,ESTRELLA,27.0,,,,,,FRACCIONAMIENTO,VILLAS DE LA HACIENDA,,,,45654.0,14,Jalisco,97,Tlajomulco de Zúńiga,833,Villas de la Hacienda [Fraccionamiento]                                                                       ,1865,25,3317019598.0,,,Fijo,20.52936425,-103.39160422,2019-11
1652992,14120541941000731000000000U1,ESTETICA CANINA MARY,,812990,Otros servicios personales,0 a 5 personas,CALLE,INDEPENDENCIA,CALLE,JUAN SEBASTIAN BACH,CALLE,JOSE MARIA MORELOS,AVENIDA,PIOTR CHAIVKOSKI,257.0,E,,,0.0,,COLONIA,SANTA MARIA DEL PUEBLITO,,,,45018.0,14,Jalisco,120,Zapopan,1,Zapopan                                                                                                       ,5266,34,,,,Fijo,20.6770627,-103.4362605,2010-07
10445557,14039812990002251000000000U9,ESTETICA CANINA MECHUDOG,,812990,Otros servicios personales,0 a 5 personas,CALLE,VASCO DE QUIROGA,CALLE,PENSADOR MEXICANO,CALLE,LUIS PAEZ B,CALLE,DIAZ MIRON,313.0,A,,,,,COLONIA,LA LOMA,,,,44410.0,14,Jalisco,39,Guadalajara,1,Guadalajara                                                                                                   ,197A,1,3312148575.0,,,Fijo,20.66179685,-103.3219308,2024-11
7780963,14039812990001901000000000U0,ESTETICA CANINA MI MEJOR AMIGO,,812990,Otros servicios personales,0 a 5 personas,CALLE,GASPAR BOLAŃOS,CALLE,SEBASTIAN ALLENDE,CALLE,AURELIO GONZALEZ,CALLE,FRANCISCO J. MUGICA,757.0,,,,0.0,,COLONIA,JARDINES ALCALDE,,,,44298.0,14,Jalisco,39,Guadalajara,1,Guadalajara                                                                                                   ,0149,2,3318606050.0,,,Fijo,20.70695255,-103.3416548,2019-11
11703167,14039812990002211000000000U3,ESTETICA CANINA MUSCARIN,,812990,Otros servicios personales,0 a 5 personas,CALLE,ANTONIO DIAZ SOLIS,CALLE,JOAQUIN FERNANDEZ DE LIZARDI,CALLE,MANUEL ROMERO DE TERREROS,CALLE,DIEGO DURAN,1061.0,,,,,,COLONIA,JARDINES DE LA PAZ,,,,44860.0,14,Jalisco,39,Guadalajara,1,Guadalajara                                                                                                   ,5027,31,3310890827.0,,,Fijo,20.64683494,-103.29920595,2024-11
9828618,14097812990000231000000000U1,ESTETICA CANINA PATITAS DE ASEO,,812990,Otros servicios personales,0 a 5 personas,CIRCUITO,NICOLAS ENRIQUEZ,AVENIDA,DE LOS SILOS,CIRCUITO,NICOLAS ENRIQUEZ,CIRCUITO,NICOLAS ENRIQUEZ,44.0,,,,,,FRACCIONAMIENTO,SILOS,,,,45640.0,14,Jalisco,97,Tlajomulco de Zúńiga,777,Rancho Alegre [Fraccionamiento]                                                                               ,2365,16,3314235412.0,,,Fijo,20.47838512,-103.24804952,2024-11
8373237,14120812990001071000000000U0,ESTETICA CANINA PAWS,,812990,Otros servicios personales,0 a 5 personas,CALLE,PERLA,CALLE,TIBURON,AVENIDA,CONCHITA,CALLE,QUEBRADA,,DOMICILIO CONOCIDO,C,PLANTA BAJA,3780.0,,COLONIA,LOMA BONITA,,,,45088.0,14,Jalisco,120,Zapopan,1,Zapopan                                                                                                       ,3170,35,3316711837.0,,,Fijo,20.63628273,-103.40186038,2019-11
9810972,14039812990002071000000000U1,ESTETICA CANINA PELUKAN EL SPA DE KAREN,,812990,Otros servicios personales,0 a 5 personas,CALLE,CONSTANCIA,CALLE,MEDRANO,AVENIDA,REVOLUCION,CALZADA,CALZADA DEL EJERCITO,178.0,,,,,,COLONIA,OLIMPICA,,,,44400.0,14,Jalisco,39,Guadalajara,1,Guadalajara                                                                                                   ,165A,37,,,,Fijo,20.665956,-103.33181182,2024-11
1899319,14039812990000541000000000U5,ESTETICA CANINA PEQUEŃOS GUARDINES,,812990,Otros servicios personales,0 a 5 personas,CALLE,PEDRO GARCIA CONDE,CALLE,PEDRO GARCIA CONDE,CALLE,JUAN BONILLA,CALLE,JOSE GUILLERMO CARBO,600.0,,,,0.0,,COLONIA,5 DE MAYO,,,,44970.0,14,Jalisco,39,Guadalajara,1,Guadalajara                                                                                                   ,3514,33,3336920523.0,,,Fijo,20.62576135,-103.35466465,2010-07
8330549,14120812990001111000000000U4,ESTETICA CANINA PET,,812990,Otros servicios personales,0 a 5 personas,CALLE,ALAMO,CALLE,CAOBA,CALLE,VICENTE GUERRERO,CALLE,CERRO DE AMECA,4522.0,,,,0.0,,COLONIA,LOMA BONITA EJIDAL,,,,45085.0,14,Jalisco,120,Zapopan,1,Zapopan                                                                                                       ,2897,36,3320690063.0,,,Fijo,20.63052825,-103.40225349,2019-11
9662553,14120812990001371000000000U4,ESTETICA CANINA PET BEAUTY MIRAMAR,,812990,Otros servicios personales,0 a 5 personas,CALLE,PUERTO GUAYMAS,CALLE,BAHIA ESCONDIDA,CALLE,PUERTO SAN JUAN,CALLE,PUERTO DE TENACATITA,225.0,3,,,0.0,,COLONIA,MIRAMAR,,,,45060.0,14,Jalisco,120,Zapopan,1,Zapopan                                                                                                       ,1723,15,3326200560.0,ESTEFANIAAPODACA@GMAIL.COM,,Fijo,20.64199613,-103.44566822,2024-11
7614764,14120812990001011000000000U6,ESTETICA CANINA PET CLINICK,,812990,Otros servicios personales,6 a 10 personas,AVENIDA,PASEO DE LAS AVES,PRIVADA,PARVADAS,AVENIDA,CAMINO A BOSQUES DE SAN ISIDRO,AVENIDA,PASEO DE LAS AVES,2670.0,,,,0.0,,COLONIA,CANTERA,,,,45180.0,14,Jalisco,120,Zapopan,1,Zapopan                                                                                                       ,6175,34,,,,Fijo,20.76304372,-103.38298146,2019-11
7811688,14039541941003301000000000U2,ESTETICA CANINA PET SHOP SPA,,812990,Otros servicios personales,0 a 5 personas,AVENIDA,RIO NILO,CALLE,MAQUINISTAS,AVENIDA,SAN RAFAEL,CALLE,ESFINGE,2316.0,,,,0.0,,COLONIA,LA PAZ,,,,44860.0,14,Jalisco,39,Guadalajara,1,Guadalajara                                                                                                   ,2291,24,,PEEKBET@GMAIL.COM,,Fijo,20.64572962,-103.31070121,2019-11
9882950,14097812990000271000000000U7,ESTETICA CANINA PETS STYLE DRAKO,,812990,Otros servicios personales,0 a 5 personas,CALLE,ESCOBEDO,CALLE,OYAMEL,CALLE,AREDUL,CALLE,YUCA,6.0,,,,,,FRACCIONAMIENTO,RINCONADA DE LOS NOGALES,,,,45640.0,14,Jalisco,97,Tlajomulco de Zúńiga,852,Tierra de la Esperanza (Rinconada de los Nogales)                                                             ,4179,3,,,,Fijo,20.45550505,-103.41370791,2024-11
9021000,14120812990001161000000000U9,ESTETICA CANINA PETT SALON,,812990,Otros servicios personales,0 a 5 personas,AVENIDA,DE LA PATRIA,CALLE,VOLCAN VESUBIO,CALLE,VOLCAN QUINCEO,CALLE,PEŃA NEVADA,2974.0,,,,,M,COLONIA,COLLI URBANO,,,,45070.0,14,Jalisco,120,Zapopan,1,Zapopan                                                                                                       ,1297,39,3336202121.0,BYPETSALON@HOTMAIL.COM,,Fijo,20.63959162,-103.41970217,2019-11
7021800,14098811430000701000000000U9,ESTETICA CANINA SAHYAN GROOMING,,812990,Otros servicios personales,0 a 5 personas,CALLE,VIRGEN DE SAN JUAN DE LOS LAGOS,CALZADA,VIRGEN DE LA CANDELARIA,CALLE,CAMINO REAL DE COLIMA,CALLE,VIRGEN DE LOS REMEDIOS,611.0,,,,0.0,,COLONIA,SANTA ANITA,,,,45600.0,14,Jalisco,98,San Pedro Tlaquepaque,14,Santa Anita                                                                                                   ,2023,4,,,,Fijo,20.55723482,-103.45203189,2019-11
7118896,14070812990000041000000000U1,ESTETICA CANINA SAN FRANCISCO,,812990,Otros servicios personales,0 a 5 personas,CALLE,CASTILLO CHAPULTEPEC 915,CALLE,CASTILLO DE CHAPULTEPEC,CALLE,CASTILLO DE MONZON,CALLE,CASTILLO CHAPULTEPEC 911,43.0,,,,0.0,,FRACCIONAMIENTO,PARQUES DEL CASTILLO,,,,45685.0,14,Jalisco,70,El Salto,20,San José del Castillo                                                                                         ,1382,3,,,,Fijo,20.52435087,-103.24357362,2019-11
11496627,14101812990000361000000000U6,ESTETICA CANINA SIN NOMBRE,,812990,Otros servicios personales,0 a 5 personas,CALLE,COLINA CENTRAL,CALLE,NINGUNO,CALLE,DE LA MESETA,CIRCUITO,COLINA REAL,3262.0,B,,,,,COLONIA,COLINAS DE TONALA,,,,45422.0,14,Jalisco,101,Tonalá,34,Colinas de Tonalá (San Nicolás) [Fraccionamiento]                                                             ,0274,4,3318206980.0,,,Fijo,20.61385499,-103.20185377,2024-11
8513765,14098812990000351000000000U5,ESTETICA CANINA SIN NOMBRE,,812990,Otros servicios personales,0 a 5 personas,CALLE,JOSE DE PAEZ,ANDADOR,ALFONSO PENA,CALLE,HUMBERTO PEDRETI,CALLE,MANUEL O. CARRANZA,668.0,,,,0.0,,COLONIA,MIRAVALLE,,,,45570.0,14,Jalisco,98,San Pedro Tlaquepaque,1,Tlaquepaque                                                                                                   ,2451,16,,,,Fijo,20.60766075,-103.35009008,2019-11
7076533,14120541941002601000000000U4,ESTETICA CANINA SIN NOMBRE,,812990,Otros servicios personales,0 a 5 personas,CALLE,PRADOS IXTEPETE,PROLONGACION,PRADOS DEL IXTEPETE,CALLE,TOLTECA,AVENIDA,JOSE LOPEZ PORTILLO,63.0,A,,,,,COLONIA,JARDINES DEL IXTEPETEC,,,,45236.0,14,Jalisco,120,Zapopan,1,Zapopan                                                                                                       ,4484,3,3313278002.0,,,Fijo,20.62466833,-103.44115657,2019-11
8384224,14039812990001861000000000U6,ESTETICA CANINA SIN NOMBRE,,812990,Otros servicios personales,0 a 5 personas,CALZADA,CALZADA DEL EJERCITO,CALLE,ANTONIO BRAVO,CALLE,CUITLAHUAC,CALLE,BANDERA,534.0,,,,,,COLONIA,LAS CONCHAS,,,,44450.0,14,Jalisco,39,Guadalajara,1,Guadalajara                                                                                                   ,1927,16,3314709898.0,,,Fijo,20.66271696,-103.33396761,2019-11
1681142,14039812990001151000000000U2,ESTETICA CANINA SOO- KAREN,,812990,Otros servicios personales,0 a 5 personas,CALLE,HACIENDA DE LA VENTA,AVENIDA,PLUTARCO ELIAS CALLES,AVENIDA,ARTESANOS,CALLE,HACIENDA DE LA VENTA,1284.0,,,,0.0,,COLONIA,BALCONES DE OBLATOS,,,,44720.0,14,Jalisco,39,Guadalajara,1,Guadalajara                                                                                                   ,0882,27,3312188110.0,,,Fijo,20.68274044,-103.29460675,2014-12
8664106,14120812990000971000000000U2,ESTETICA CANINA UNICORNIO,,812990,Otros servicios personales,0 a 5 personas,CALLE,GENERAL MANUEL M DIEGUEZ,CALLE,GENERAL MANUEL M. DIEGUEZ,CALLE,GENERAL ESTEBAN BACA CALDERON,CALLE,GENERAL MANUEL M. DIEGUEZ,486.0,A,,,0.0,,COLONIA,CONSTITUCION,,,,45180.0,14,Jalisco,120,Zapopan,1,Zapopan                                                                                                       ,4234,23,3311580148.0,,,Fijo,20.73026371,-103.3674103,2019-11
10132773,14039812990002301000000000U2,ESTETICA CANINA Y ACCESORIOS,,812990,Otros servicios personales,0 a 5 personas,CALLE,CALDERON DE LA BARCA,CALLE,MORELOS,AVENIDA,IGNACIO L. VALLARTA,CALLE,FRANCISCO JAVIER GAMBOA,43.0,,,,,,COLONIA,AMERICANA,,,,44140.0,14,Jalisco,39,Guadalajara,1,Guadalajara                                                                                                   ,1575,17,,,,Fijo,20.67462058,-103.37852848,2024-11
11469406,14101812990000391000000000U3,ESTETICA CANINA Y ACUARIO GRU,,812990,Otros servicios personales,0 a 5 personas,CALLE,MARCOS LARA,CALLE,SANTA MARGARITA,CALLE,SAN ANTONIO,CALLE,LOMBARDO TOLEDANO,0.0,SN,,,,,COLONIA,SANTA PAULA,,,,45420.0,14,Jalisco,101,Tonalá,1,Tonalá                                                                                                        ,1130,28,3314168675.0,,,Fijo,20.59581446,-103.24358633,2024-11
1658977,14039811112005361011000000U5,ESTETICA MASCULINA REAL,,812990,Otros servicios personales,6 a 10 personas,CIRCUNVALACION,OBLATOS,CALLE,SANTA ROSALIA,CALLE,SAN ESTEBAN,CALLE,CERRO AZUL,1408.0,,,,0.0,,COLONIA,POSTES CUATES,,,,44350.0,14,Jalisco,39,Guadalajara,1,Guadalajara                                                                                                   ,0789,10,,,,Fijo,20.69252868,-103.31572499,2013-07
10865164,14039812990002221000000000U2,ESTETICA MASKOTITAS,,812990,Otros servicios personales,0 a 5 personas,CALLE,MARIA GUADALUPE MARTINEZ DE HERNANDEZ LOZA,CALLE,HACIENDA SAN RAMON,CALLE,JOSE ACEVES POZOS,CALLE,HACIENDA SANTA RITA,2658.0,,,,,,COLONIA,LOMAS DE OBLATOS,,,,44760.0,14,Jalisco,39,Guadalajara,1,Guadalajara                                                                                                   ,4226,13,,,,Fijo,20.68923607,-103.27839755,2024-11
8972296,14120812990001141000000000U1,ESTETICA PARA MASCOTAS GREEN PETS,,812990,Otros servicios personales,0 a 5 personas,AVENIDA,CRUZ DEL SUR,CALLE,ARENQUE,AVENIDA,CONCHITA,CALLE,QUEBRADA,3689.0,,,,6.0,H,COLONIA,FRACC LOMAS DE LA VICTORIA,,,,45087.0,14,Jalisco,120,Zapopan,1,Zapopan                                                                                                       ,3170,36,3323255619.0,,,Fijo,20.63502865,-103.39871402,2019-11
8494778,14120812990001251000000000U8,ESTETICA PATITAS,,812990,Otros servicios personales,0 a 5 personas,CALLE,SANTA ESTHER,CALLE,SANTA LAURA,CALLE,SANTA CECILIA,CALLE,SANTA CATALINA,63.0,,,,0.0,,COLONIA,SANTA MARGARITA I SECCION,,,,45140.0,14,Jalisco,120,Zapopan,1,Zapopan                                                                                                       ,0231,12,3317780263.0,,,Fijo,20.72856094,-103.40699436,2019-11
1684098,14039812990001141000000000U3,ESTETICA PELUSITA,,812990,Otros servicios personales,0 a 5 personas,CALLE,EJIDO,CALLE,ALDAMA,CALLE,ANTONIO ROJAS,CALLE,JORGE ISAAC,266.0,,,,0.0,,COLONIA,SAN ANDRES,,,,44810.0,14,Jalisco,39,Guadalajara,1,Guadalajara                                                                                                   ,2037,4,3311087921.0,,,Fijo,20.65914737,-103.3062441,2014-12
1866569,14039812110028911000000000U3,ESTETICA PERRONA,,812990,Otros servicios personales,0 a 5 personas,CALLE,SAN ANDRES,AVENIDA,SAN JACINTO,PRIVADA,DANIEL RODRIGUEZ,CALLE,GIGANTES,2835.0,A,,,0.0,,COLONIA,SAN ANDRES,,,,44810.0,14,Jalisco,39,Guadalajara,1,Guadalajara                                                                                                   ,2056,20,,,,Fijo,20.6612313,-103.29909394,2010-07
9865921,14120812990001441000000000U5,GATINN,,812990,Otros servicios personales,0 a 5 personas,AVENIDA,DE LAS PALMERAS,ANDADOR,CAPULINES,CALLE,HIGOS,ANDADOR,CAPULINES,1009.0,,,,0.0,,COLONIA,TUZANIA,,,,45138.0,14,Jalisco,120,Zapopan,1,Zapopan                                                                                                       ,1812,28,3333905877.0,,,Fijo,20.73385952,-103.41571848,2024-11
1960276,14039541890002071010000000U1,GRADUACIONES DE OCCIDENTE,,812990,Otros servicios personales,0 a 5 personas,CALLE,GABRIEL RAMOS MILLAN,CALLE,FRANCISCO ZARCO,CALLE,HOSPITAL,CALLE,ANDRES TERAN,617.0,B,,,613.0,,COLONIA,VILLASEŃOR,,,,44600.0,14,Jalisco,39,Guadalajara,1,Guadalajara                                                                                                   ,0967,18,3314497203.0,GRADUACIONESDEOCCIDENTE@HOTMAIL.COM,,Fijo,20.68588106,-103.36708594,2010-07
1693082,14120812990000781000000000U5,GRAND MASTIFF,,812990,Otros servicios personales,0 a 5 personas,CALLE,MICA,AVENIDA,ARENALES,AVENIDA,CENTRAL,AVENIDA,GUADALUPE,27.0,,,,,,COLONIA,ARENALES TAPATIOS,,,,45066.0,14,Jalisco,120,Zapopan,1,Zapopan                                                                                                       ,2327,27,3331803590.0,VETGRANDMASTIFF@HOTMAIL.COM,,Fijo,20.63227592,-103.46333212,2014-12
9903507,14039812990002121000000000S4,GRUPO AL ANON,GRUPO FAMILIAR DE AYUDA AL ANON AC,812990,Otros servicios personales,0 a 5 personas,CALLE,JUAN ALVAREZ,CALLE,AGUSTIN DE LA ROSA,CALLE,AURELIO L. GALLARDO,AVENIDA,MANUEL ACUŃA,2337.0,1,,,,,COLONIA,LADRON DE GUEVARA,,,,44600.0,14,Jalisco,39,Guadalajara,1,Guadalajara                                                                                                   ,0948,14,3310231909.0,,WWW.ALANON.COM,Fijo,20.6850779,-103.37569531,2024-11
6705025,14039541941002643000000000U8,GUARDERIA CANINA DOG DOG ENCAMINANDO A TU PERRO,GUARDERIA CANINA DOG DOG ENCAMINANDO A TU PERRO  SA DE CV,812990,Otros servicios personales,0 a 5 personas,CALLE,GENERAL EULOGIO PARRA,AVENIDA,JUAN PALOMAR Y ARIAS,OTRO(ESPECIFIQUE),NINGUNO,CALLE,GENERAL EULOGIO PARRA,3143.0,,,,,,COLONIA,MONRAZ,,,,44670.0,14,Jalisco,39,Guadalajara,1,Guadalajara                                                                                                   ,0562,36,,,WWW.DOGDOG.MX,Fijo,20.68745388,-103.39472854,2016-01
9972181,14039812990002092000000000U7,HOLY FORM,,812990,Otros servicios personales,6 a 10 personas,CALLE,COLON,AVENIDA,8 DE JULIO,AVENIDA,ESPAŃA,AVENIDA,ESPAŃA,1195.0,A,,,0.0,,COLONIA,LA MODERNA,,,,44190.0,14,Jalisco,39,Guadalajara,1,Guadalajara                                                                                                   ,2179,19,3314137782.0,,,Fijo,20.66064397,-103.35609414,2024-11
9357043,14039812990002031000000000U5,HOPPY PET,,812990,Otros servicios personales,0 a 5 personas,CALLE,FELIX PALAVICINI,CALLE,SANTA ELENA,CALLE,BARCELONA,CALLE,JACINTO LOPEZ,2216.0,,,,,,COLONIA,GUADALUPANA,,,,44220.0,14,Jalisco,39,Guadalajara,1,Guadalajara                                                                                                   ,4122,20,3312683279.0,,WWW.HOPPYPET.NET,Fijo,20.70660778,-103.34783113,2021-05
7863137,14097812990000221000000000U2,HOTEL CANINO AQUITESPERO,,812990,Otros servicios personales,0 a 5 personas,AVENIDA,LOPEZ MATEOS SUR,CARRETERA,CARRETERA LOPEZ MATEOS,CALLE,CAMINO REAL DE COLIMA,CALLE,MANUEL M. PONCE,7890.0,,,,,,LOCALIDAD,SAN AGUSTIN,,,,45645.0,14,Jalisco,97,Tlajomulco de Zúńiga,25,San Agustín                                                                                                   ,0477,1,,,,Fijo,20.53972255,-103.47350884,2019-11
11133434,14098812990000411000000000U7,HUELLAS,,812990,Otros servicios personales,0 a 5 personas,AVENIDA,MAGALLANES,AVENIDA,MAGALLANES,CALLE,NINGUNO,CALLE,NINGUNO,1030.0,,ZONA LORETO,PLANTA BAJA,,,FRACCIONAMIENTO,LORETO,CENTRO Y PLAZA COMERCIAL,ZONA LORETO,3,45602.0,14,Jalisco,98,San Pedro Tlaquepaque,14,Santa Anita                                                                                                   ,3407,7,3340479004.0,,,Fijo,20.56297887,-103.4412592,2024-11
9985513,14039812990002141000000000U2,KNINN,,812990,Otros servicios personales,0 a 5 personas,CALZADA,LAZARO CARDENAS,CALLE,PLACERES,CALLE,SANTUARIO,CALLE,SANTUARIO,3147.0,,,,,,COLONIA,CHAPALITA,,,,44500.0,14,Jalisco,39,Guadalajara,1,Guadalajara                                                                                                   ,3317,39,3315727208.0,GERENCIA@KNINN.COM,,Fijo,20.66401629,-103.3925299,2024-11
10902548,14039812990002231000000000U1,KUKAS ESTETICA CANINA,,812990,Otros servicios personales,0 a 5 personas,CALLE,PRISCILIANO SANCHEZ,CALLE,CAMARENA,CALLE,RAYON,CALLE,MIGUEL BLANCO,761.0,,,,0.0,,COLONIA,AMERICANA,,,,44160.0,14,Jalisco,39,Guadalajara,1,Guadalajara                                                                                                   ,1842,1,3328198005.0,KUKAS.ESTETICA.CANINA@GMAIL.COM,,Fijo,20.67263664,-103.35701461,2024-11
1733332,14098812990000191000000000U5,LA CUEVA DEL DUENDE,,812990,Otros servicios personales,0 a 5 personas,CALLE,HORNOS,CALLE,CARRILLO PUERTO,CALLE,OBREGON,CALLE,FLORIDA,33.0,A,,,0.0,,COLONIA,BARRIO DE SANJUAN,,,,45500.0,14,Jalisco,98,San Pedro Tlaquepaque,1,Tlaquepaque                                                                                                   ,0031,28,3313538222.0,,,Fijo,20.64404741,-103.31012597,2014-12
11529830,14120812990001501000000000U6,LA PERRUQUERIA,,812990,Otros servicios personales,0 a 5 personas,CALLE,PUERTO TAMPICO,CALLE,PUERTO BALANDRAS,CALLE,PUERTO MEXICO,CALLE,PUERTO MULEGE,1417.0,,,,,,COLONIA,MIRAMAR,,,,45060.0,14,Jalisco,120,Zapopan,1,Zapopan                                                                                                       ,4569,23,3328388242.0,,,Fijo,20.64092538,-103.45333679,2024-11
8606088,14120812990001051000000000U2,LA VENTA CLUB CANINO,,812990,Otros servicios personales,0 a 5 personas,AVENIDA,DE LOS PINOS,CALLE,COFRADIA,CALLE,NINGUNO,OTRO(ESPECIFIQUE),PREDIO VACIO,600.0,,,,0.0,,COLONIA,LA VENTA DEL ASTILLERO,,,,45221.0,14,Jalisco,120,Zapopan,243,La Venta del Astillero                                                                                        ,4709,48,,,,Fijo,20.72154733,-103.54038513,2019-11
9982351,14097812990000281000000000U6,LAUDYS,,812990,Otros servicios personales,0 a 5 personas,AVENIDA,ADOLFO LOPEZ MATEOS SUR,PRIVADA,NINGUNO,CALLE,PASEO DEL PALOMAR,CALLE,PASEO DEL PALOMAR,1710.0,,EL PALOMAR,CORREDOR,31.0,G,COLONIA,EL PAOMAR,CENTRO Y PLAZA COMERCIAL,EL PALOMAR,31,45645.0,14,Jalisco,97,Tlajomulco de Zúńiga,180,Palomar                                                                                                       ,1244,40,,LAUDYSPALOMAR@GMAIL.COM,,Fijo,20.59015171,-103.44338901,2024-11
1826538,14120812990000921000000000U7,LE CHOU CHOU,,812990,Otros servicios personales,0 a 5 personas,AVENIDA,MANUEL J CLOUTHIER,CALLE,PLAYA CHAMELA,PRIVADA,NINGUNO,AVENIDA,MANUEL J. CLOUTHIER,1380.0,13,,,,,COLONIA,NUEVA PRIMAVERA,,,,45056.0,14,Jalisco,120,Zapopan,1,Zapopan                                                                                                       ,194A,45,,,,Fijo,20.65229853,-103.42567582,2010-07
1927820,14101812990000101000000000U6,LECTURA DE CARTAS,,812990,Otros servicios personales,0 a 5 personas,AVENIDA,PATRIA,CALLE,REAL DE LAS MAGNOLIAS,AVENIDA,REAL DE LOS CAMICHINES,CALLE,REAL DE LAS MAGNOLIAS,134.0,,,,0.0,,COLONIA,CAMICHINES II,,,,45403.0,14,Jalisco,101,Tonalá,1,Tonalá                                                                                                        ,1408,20,,,,Fijo,20.62776457,-103.28574522,2010-07
10271794,14039812990002451000000000U5,LECTURA DE CARTAS,,812990,Otros servicios personales,0 a 5 personas,AVENIDA,JESUS REYES HEROLES,CALLE,ISLAS HEBRIDAS,CALLE,ISLA ZANZIBAR,CALLE,ISLA IZARO,3014.0,,,,,,COLONIA,VILLA GUERRERO,,,,44987.0,14,Jalisco,39,Guadalajara,1,Guadalajara                                                                                                   ,3340,31,8125955415.0,,,Fijo,20.62883418,-103.39113606,2024-11
9998625,14097812990000241000000000U0,LECTURA DE CARTAS DEL TAROT SIN NOMBRE,,812990,Otros servicios personales,0 a 5 personas,CALLE,VILLA PALENCIA,ANDADOR,NINGUNO,CALLE,VILLA PALENCIA,AVENIDA,VILLA ARAGON,118.0,,,,,,FRACCIONAMIENTO,VILLA FONTANA AQUA,,,,45653.0,14,Jalisco,97,Tlajomulco de Zúńiga,822,Hacienda Santa Fe                                                                                             ,372A,8,3314033432.0,LIZBETHPAIZ@GMAIL.COM,,Fijo,20.4938891,-103.34756737,2024-11
1960329,14039812990000021000000000U8,LECTURA DE CARTAS MARELI,,812990,Otros servicios personales,0 a 5 personas,CALLE,HOSPITAL,CALLE,IGNACIO RAMIREZ,CALLE,GENERAL CORONADO,CALLE,JUAN ALVAREZ,1367.0,A,,,0.0,,COLONIA,SANTA TEERESITA DE JESUS,,,,44600.0,14,Jalisco,39,Guadalajara,1,Guadalajara                                                                                                   ,0967,22,3312161240.0,,,Fijo,20.68543756,-103.36393903,2010-07
1712302,14101812990000181000000000U8,LECTURA DE CARTAS Y TAROT,,812990,Otros servicios personales,0 a 5 personas,CALLE,AMARANTO,CALLE,AMAPOLA,CALLE,AZALEA,AVENIDA,ZALATITAN,438.0,,,,0.0,,COLONIA,ALAMEDAS DE ZALATITAN,,,,45407.0,14,Jalisco,101,Tonalá,1,Tonalá                                                                                                        ,0503,23,3331052193.0,,,Fijo,20.67174695,-103.25551452,2014-12
10863528,14044812990000021000000000U8,LECTURA DE TAROT,,812990,Otros servicios personales,0 a 5 personas,CIRCUITO,DE LOS OLIVOS,CALLE,OLIVO FRANCES,CALLE,OLIVO BRASILEŃO,CALLE,OLIVO AUSTRALIANO,,SN,,,,,FRACCIONAMIENTO,LOS OLIVOS,,,,45870.0,14,Jalisco,44,Ixtlahuacán de los Membrillos,10,Los Olivos                                                                                                    ,0238,13,,,,Fijo,20.44088701,-103.23645545,2024-11
7406978,14098812990000341000000000U6,LIMPIAS Y LECTURA DE TAROT SIN NOMBRE,,812990,Otros servicios personales,0 a 5 personas,CALLE,ROSAL,CALLE,TAMIAHUA,CALLE,GARDENIA,PRIVADA,ORQUIDEA,320.0,,,,0.0,,COLONIA,SALVADOR PORTILLO LOPEZ,,,,45580.0,14,Jalisco,98,San Pedro Tlaquepaque,1,Tlaquepaque                                                                                                   ,2818,26,3312065771.0,,,Fijo,20.61904242,-103.29706943,2019-11
9718486,14039812990002431000000000U7,LOVET PETS CENTRO VETERINARIO Y HOTEL,,812990,Otros servicios personales,0 a 5 personas,CALLE,ISLA SOCORRO,CALLE,ISLA SAMOA,CALLE,ISLA OKINO,CALLE,ISLA GALITE,2731.0,,,,,,COLONIA,VILLA GUERRERO,,,,44987.0,14,Jalisco,39,Guadalajara,1,Guadalajara                                                                                                   ,4067,5,3315698290.0,,,Fijo,20.63075582,-103.38630924,2024-11
11550540,14120812990001601000000000U4,LU VALLEJO ESTETICA,,812990,Otros servicios personales,0 a 5 personas,CALZADA,CENTRAL,AVENIDA,VALLARTA EJE PONIENTE,PRIVADA,NINGUNO,CALLE,ALVARO DEL PORTILLO,111.0,,PLAZA CENTER III,PLANTA BAJA,2.0,,COLONIA,CIUDAD GRANJA,CENTRO Y PLAZA COMERCIAL,PLAZA CENTER III,2,45010.0,14,Jalisco,120,Zapopan,1,Zapopan                                                                                                       ,1206,23,3320573423.0,,,Fijo,20.68513693,-103.44288189,2024-11
10320291,14039812990002331000000000S9,LUGAR DE ESTUDIO Y BODEGA,,812990,Otros servicios personales,0 a 5 personas,CALLE,JOAQUIN ANGULO,CALLE,ANDRES TERAN,CALLE,GABRIEL RAMOS MILLAN,CALLE,GARIBALDI,1433.0,,PLAZA SANTA TERESITA,PISO 1,19.0,,COLONIA,SANTA TERESITA,CENTRO Y PLAZA COMERCIAL,PLAZA SANTA TERESITA,19,44600.0,14,Jalisco,39,Guadalajara,1,Guadalajara                                                                                                   ,1096,15,3312161105.0,,,Fijo,20.68207223,-103.36798234,2024-11
10288565,14101812990000371000000000U5,LUNA BETH CENTER,,812990,Otros servicios personales,0 a 5 personas,CALLE,INDEPENDENCIA,CALLE,REFORMA,CALLE,HIDALGO,CALLE,ALDAMA,13.0,,,,,,COLONIA,COYULA,,,,45410.0,14,Jalisco,101,Tonalá,9,Coyula                                                                                                        ,1450,18,3318925258.0,,,Fijo,20.66154027,-103.22679616,2024-11
11497377,14039812990002061000000000U2,MAAR ARTE MAGICO,,812990,Otros servicios personales,0 a 5 personas,CALLE,LOPEZ COTILLA,CALLE,PRADO,CALLE,ROBLES GIL,CALLE,FRANCISCO I. MADERO,1057.0,,,,,,COLONIA,AMERICANA,,,,44160.0,14,Jalisco,39,Guadalajara,1,Guadalajara                                                                                                   ,1607,3,3332189475.0,,,Fijo,20.67386865,-103.36126793,2024-11
11194413,14120812990001361000000000U5,MARIO EL VETERINARIO,,812990,Otros servicios personales,0 a 5 personas,AVENIDA,TESISTAN,CALZADA,FEDERALISTAS,AVENIDA,MAGNOLIAS,CALLE,LOS CEDROS,490.0,,SAN JOSE,PLANTA BAJA,,,COLONIA,JARDINES DEL VALLE,CENTRO Y PLAZA COMERCIAL,SAN JOSE,13 -14,45138.0,14,Jalisco,120,Zapopan,1,Zapopan                                                                                                       ,3382,1,,,,Semifijo,20.74710591,-103.42426684,2024-11
1712673,14101812990000171000000000U9,MASCOTIENDA Y ESTETICA CANINA FASHION CAN,,812990,Otros servicios personales,0 a 5 personas,CALLE,GONZALEZ ORTEGA,CALLE,HIDALGO,CALLE,RAYON,CALLE,JUAREZ,60.0,G,,,0.0,,COLONIA,ZALATITAN,,,,45405.0,14,Jalisco,101,Tonalá,1,Tonalá                                                                                                        ,1319,25,3311787884.0,,,Fijo,20.65713921,-103.2625391,2014-12
10109243,14039812990002111000000000U5,MITIKAAH ESPACIO HOLISTICO,,812990,Otros servicios personales,0 a 5 personas,CALLE,LIBERTAD,CALLE,ARGENTINA,CALLE,BELGICA,CALLE,MIGUEL BLANCO,1624.0,,,,,,COLONIA,AMERICANA,,,,44160.0,14,Jalisco,39,Guadalajara,1,Guadalajara                                                                                                   ,1838,12,3331785976.0,CONTACTO@MITIKAAH.COM,WWW.MITIKAAH.COM,Fijo,20.67173948,-103.36098622,2024-11
7866136,14039541941003601000000000U5,MOE UHANE ESTETICA PARA MASCOTAS,,812990,Otros servicios personales,0 a 5 personas,CALLE,ROBLE,CALLE,CIPRES,CALLE,PRIMAVERA,CALLE,CEDRO,1321.0,A,,,0.0,,COLONIA,EL FRESNO,,,,44900.0,14,Jalisco,39,Guadalajara,1,Guadalajara                                                                                                   ,2376,10,3313489331.0,MOEUHANE.VET@GMAIL.COM,,Fijo,20.65815802,-103.36832787,2019-11
11006547,14070812990000051000000000U0,MOLLIS PET SPA,,812990,Otros servicios personales,0 a 5 personas,CALLE,SANTA MARIA VIRGEN,CALLE,SAN JOSE,CALLE,SAN JAVIER,CALLE,SANTA ROSA,20.0,,,,,,COLONIA,LAS PINTITAS,,,,45690.0,14,Jalisco,70,El Salto,13,Las Pintas                                                                                                    ,0327,36,3311242347.0,,,Fijo,20.5634629,-103.32193151,2024-11
11660889,14120812990001621000000000U2,MY DOG MAYLO ESTETICA CANINA,,812990,Otros servicios personales,0 a 5 personas,CALLE,SIERRA DE PARNASO,CALLE,SIERRA DE PARNASO,CALLE,SIERRA DE PARNASO,CALLE,SIERRA DE MAZAMITLA,4962.0,A,,,,,COLONIA,LAS AGUILAS,,,,45080.0,14,Jalisco,120,Zapopan,1,Zapopan                                                                                                       ,0710,21,3310955598.0,,,Fijo,20.62968973,-103.41129302,2024-11
10999425,14120812990001571000000000U9,NAMASPET,,812990,Otros servicios personales,0 a 5 personas,CALLE,VOLCAN POPOCATEPETL,AVENIDA,DE LA PATRIA,CALLE,VOLCAN ETNA,CALLE,VOLCAN PARICUTIN,4595.0,13,,,,,COLONIA,COLLI URBANO,,,,45070.0,14,Jalisco,120,Zapopan,1,Zapopan                                                                                                       ,1297,28,,NAMASPET.ATMON@GMAIL.COM,,Fijo,20.64143802,-103.41818943,2024-11
10502319,14120812990001651000000000U9,NUSKE,,812990,Otros servicios personales,0 a 5 personas,PRIVADA,MILAN,PRIVADA,LEONARDO,CALLE,NINGUNO,PRIVADA,FLORENCIA,346.0,,EDIFICIO SIN NOMBRE,PISO 1,346.0,,FRACCIONAMIENTO,PALERMO,,,,45200.0,14,Jalisco,120,Zapopan,753,Palermo                                                                                                       ,0320,16,,,,Fijo,20.81964614,-103.46331045,2024-11
7582466,14120812990001202000000000U1,OFIS PET CARE,,812990,Otros servicios personales,6 a 10 personas,AVENIDA,GENERAL RAMON CORONA,AVENIDA,AVIACION,CALLE,NINGUNO,AVENIDA,AVIACION,2411.0,C,,,0.0,,MANZANA,RAMON CORONA AVIACION SOLARES,,,,45100.0,14,Jalisco,120,Zapopan,1,Zapopan                                                                                                       ,6743,2,,PENGGOONL@GMAIL.COM,,Fijo,20.73121258,-103.4531137,2019-11
11112084,14120812990001641000000000U0,OH WO WAUH SPA Y SALON VETERINARIO,,812990,Otros servicios personales,0 a 5 personas,AVENIDA,PATRIA,AVENIDA,DE LOS NOVELISTAS,AVENIDA,INGLATERRA,CALLE,GIOVANNI PAPINI,5003.0,,PLAZA GIOVANI PAPINI,PLANTA BAJA,3.0,3 Y 4,COLONIA,LOMAS DE UNIVERSIDAD,CENTRO Y PLAZA COMERCIAL,PLAZA GIOVANI PAPINI,3,45016.0,14,Jalisco,120,Zapopan,1,Zapopan                                                                                                       ,2416,8,3330222965.0,OHWOWAU@GMAIL.COM,,Fijo,20.68225746,-103.42109562,2024-11
9550389,14120812990001461000000000U3,ONLY PATITAS GUARDERIA DE MASCOTAS,,812990,Otros servicios personales,0 a 5 personas,CALLE,GABRIELE D ANNUNZIO,CALLE,BENEDETTO CROCE,AVENIDA,JUAN PALOMAR Y ARIAS,CALLE,OSCAR WILDE,5458.0,,,,,,COLONIA,JARDINES VALLARTA,,,,45027.0,14,Jalisco,120,Zapopan,1,Zapopan                                                                                                       ,2416,24,3323395286.0,ONLYPATITASMX@GMAIL.COM,,Fijo,20.68103157,-103.42705891,2024-11
8400264,14039812990001801000000000U2,ORGANIZADORA DE EVENTOS EVENT MANAGEMENT,,812990,Otros servicios personales,0 a 5 personas,CALLE,ISABEL LA CATOLICA,AVENIDA,DIAGONAL GOLFO DE CORTES,AVENIDA,HIDALGO,CALLE,FERNANDO DE CELADA,106.0,F,,,,,COLONIA,VALLARTA NORTE,,,,44690.0,14,Jalisco,39,Guadalajara,1,Guadalajara                                                                                                   ,1289,13,,,WWW.SANTIAGOVILLASENOR.COM,Fijo,20.67622421,-103.38873292,2019-11
10010620,14039812990002241000000000U0,OTROS SERVICIOS PERSONALES,JANETH OZUNA ,812990,Otros servicios personales,0 a 5 personas,CALLE,MANUEL DE FALLA,CALLE,ANTONIO CASTILLON,CALLE,MARIA BENITEZ,CALLE,ANDRES BELLO,3686.0,,,,,,COLONIA,INSURGENTES,,,,44820.0,14,Jalisco,39,Guadalajara,1,Guadalajara                                                                                                   ,5084,1,3331012093.0,,,Fijo,20.65932842,-103.2860266,2024-11
11333707,14120812990001401000000000U9,PEK PET,,812990,Otros servicios personales,0 a 5 personas,CALLE,VIRGEN,AVENIDA,DE LA CALMA,CALLE,ORION,CALLE,BALANZA,3701.0,B,,,0.0,,COLONIA,LA CALMA,,,,45070.0,14,Jalisco,120,Zapopan,1,Zapopan                                                                                                       ,0706,17,3312838429.0,,,Fijo,20.63535464,-103.41492646,2024-11
11316624,14039812990002051000000000U3,PELUDITOS SPA,,812990,Otros servicios personales,0 a 5 personas,CALLE,ISLAS ORCADAS,CALLE,ISLA SALINAS,CALLE,ISLA TASMANIA,CALLE,ISLA ANTIGUA,2335.0,,,,,,COLONIA,JARDINES DE LA CRUZ VCP 44950,,,,44950.0,14,Jalisco,39,Guadalajara,1,Guadalajara                                                                                                   ,2681,17,3329342313.0,PELUDITOSSPA@MAIL.COM,,Fijo,20.63669032,-103.38805645,2024-11
10844264,14039812990002101000000000U6,PELUQUE ARTE CANINO,,812990,Otros servicios personales,0 a 5 personas,CALLE,EMILIO RABASA,CALLE,SEBASTIAN ALLENDE,CALLE,IGNACIO MACHAIN,PEATONAL,58,1871.0,A,,,,,COLONIA,OBLATOS,,,,44700.0,14,Jalisco,39,Guadalajara,1,Guadalajara                                                                                                   ,1202,10,,,,Fijo,20.68114499,-103.30934869,2024-11
6436471,14039812990001071000000000U9,PELUQUERIA CANINA,,812990,Otros servicios personales,0 a 5 personas,CALLE,14 (MANUEL MENA),CALLE,LUIS COVARRUBIAS,CALLE,ALBERTO CORREA,CALLE,LAURA MÉNDEZ,3952.0,,,,0.0,,COLONIA,PATRIA NUEVA,,,,44968.0,14,Jalisco,39,Guadalajara,1,Guadalajara                                                                                                   ,539A,14,,,,Fijo,20.62297999,-103.37360841,2010-07
11524593,14101812990000331000000000U9,PELUQUERIA CANINA,,812990,Otros servicios personales,0 a 5 personas,CALLE,PASEO LOMAS DEL SUR,CALLE,LOMA LARGA SUR,CALLE,LOMA CHICA NORTE,CALLE,LOMA GRANDE,7975.0,,,,7975.0,,COLONIA,LOMA DORADA,,,,45402.0,14,Jalisco,101,Tonalá,1,Tonalá                                                                                                        ,0823,23,3343504700.0,,,Fijo,20.62706775,-103.26496536,2024-11
9202475,14039812990001991000000000U1,PELUQUERIA CANINA GUAU-PO,,812990,Otros servicios personales,0 a 5 personas,AVENIDA,CRUZ DEL SUR,CALLE,ISLA MONA,AVENIDA,LOPEZ DE LEGAZPI,CALLE,ISLA MONA,3077.0,,,,,,COLONIA,JARDINES DE LA CRUZ,,,,44950.0,14,Jalisco,39,Guadalajara,1,Guadalajara                                                                                                   ,2696,42,3323434845.0,ANNALCARAZ93@GMAIL.COM,,Fijo,20.64110564,-103.3892871,2019-11
6918015,14097812990000201000000000U4,PERIATRA INN,,812990,Otros servicios personales,0 a 5 personas,CALLE,CEDRO,CALLE,CLAVEL,CALLE,NARDO,CALLE,LIRIO,38.0,,,,0.0,,MANZANA,TULIPANES,,,,45647.0,14,Jalisco,97,Tlajomulco de Zúńiga,424,La Tijera                                                                                                     ,098A,26,,,,Fijo,20.58341448,-103.43644935,2019-11
7865167,14039812990001921000000000U8,PERRHIJOS,,812990,Otros servicios personales,0 a 5 personas,CALLE,FRANCISCO VAZQUEZ CORONADO,CALLE,ISLA CARTAGENA,CALLE,ISLA BERMUDAS,CALLE,ISLAS FILIPINAS,1997.0,,,,0.0,,COLONIA,JARDINEZ DE LA CRUZ,,,,44950.0,14,Jalisco,39,Guadalajara,1,Guadalajara                                                                                                   ,2696,25,3310892515.0,,,Fijo,20.64252212,-103.37914507,2019-11
11268739,14120812990001551000000000U1,PERRUQUERIA,,812990,Otros servicios personales,0 a 5 personas,PROLONGACION,PARRES ARIAS,AVENIDA,CAMINO A BOSQUES DE SAN ISIDRO,CALLE,QUINTA DEL BOSQUE,CALLE,PASEO RINCONADA PONIENTE,1135.0,18,,,,,COLONIA,CENTINELA II,,,,45187.0,14,Jalisco,120,Zapopan,1,Zapopan                                                                                                       ,5374,11,,,,Fijo,20.75761089,-103.38186487,2024-11
8866957,14039812990001881000000000U4,PET CLAN,,812990,Otros servicios personales,0 a 5 personas,CALLE,FRANCISCO DE AYZA,CALLE,68-A,CALLE,FRANCISCO VILLA,CALLE,REPUBLICA,1295.0,,,,0.0,,COLONIA,BLANCO Y CUELLAR,,,,44730.0,14,Jalisco,39,Guadalajara,1,Guadalajara                                                                                                   ,1433,8,3313238074.0,,,Fijo,20.67133938,-103.30721989,2019-11
9665961,14120812990001631000000000U1,PET FARM,,812990,Otros servicios personales,0 a 5 personas,CALLE,SAN JUAN DE LOS LAGOS,CALLE,SAN JUAN DE LOS LAGOS,CALLE,SAN JUAN DE LOS LAGOS,PRIVADA,NINGUNO,1841.0,B,,,,,COLONIA,VILLAS DE NUEVO MEXICO,,,,45138.0,14,Jalisco,120,Zapopan,1,Zapopan                                                                                                       ,6508,1,3333264366.0,CONTACTOPETFARM@GMAIL.COM,,Fijo,20.76112553,-103.42965196,2024-11
11105785,14120812990001311000000000U0,PET GROOMING,,812990,Otros servicios personales,0 a 5 personas,AVENIDA,VALDEPEŃAS,CALLE,BERROCAL,AVENIDA,DE LA MANCHA,CALLE,TALAVERA,1032.0,C,,,0.0,,COLONIA,LOMAS DE ZAPOPAN,,,,45130.0,14,Jalisco,120,Zapopan,1,Zapopan                                                                                                       ,319A,17,3343475284.0,,,Fijo,20.74627586,-103.39829729,2024-11
7162365,14120812990001101000000000U5,PET LOOK ESTETICA CANINA,,812990,Otros servicios personales,0 a 5 personas,CALLE,VOLCAN JORULLO,CALLE,VOLCAN DE COLIMA,CALLE,VOLCAN CEBORUCO,CALLE,VOLCAN AJUSCO,2009.0,D,,,0.0,,COLONIA,COLLI URBANO,,,,45070.0,14,Jalisco,120,Zapopan,1,Zapopan                                                                                                       ,4431,7,,,,Fijo,20.64585699,-103.43546594,2019-11
10481324,14039812990002161000000000U0,PET SPA ESTETICA CANINA,,812990,Otros servicios personales,0 a 5 personas,CALLE,MARIA MARES,CALLE,MEDRANO,CALLE,MARCELINO RENTARIA,CALLE,MARIA URIBE,717.0,,,,,,COLONIA,INSURGENTES,,,,44820.0,14,Jalisco,39,Guadalajara,1,Guadalajara                                                                                                   ,5169,3,3329244547.0,,,Fijo,20.65143616,-103.28502628,2024-11
1673833,14039812990001041000000000U5,PET WASH,,812990,Otros servicios personales,0 a 5 personas,CALLE,PENINSULA,AVENIDA,LAPISLAZULI,CALLE,BAHIA,CALLE,QUEBRADA,2728.0,A,,,,,COLONIA,SANTA EDUWIGES,,,,44580.0,14,Jalisco,39,Guadalajara,1,Guadalajara                                                                                                   ,2677,8,3313042874.0,ESTETICAMASCOTASPETWASH@GMAIL.COM,,Fijo,20.64084898,-103.39355326,2014-12
10830340,14101812990000381000000000U4,PET YAMO,,812990,Otros servicios personales,0 a 5 personas,CALLE,ARROYO DE ENMEDIO,CALLE,NINGUNO,CALLE,JOSE ALVAREZ FERNANDEZ,CALLE,SAN ALEJANDRO,980.0,,ACTITUD 79,PISO 1,,,COLONIA,SANTA PAULA,EDIFICIO COMERCIAL Y DE SERVICIOS,ACTITUD 79,H,45420.0,14,Jalisco,101,Tonalá,1,Tonalá                                                                                                        ,1130,12,,,,Fijo,20.59249517,-103.23907661,2024-11
9443717,14120812990001301000000000U1,PETS FASHION LUCIA,,812990,Otros servicios personales,0 a 5 personas,CALLE,SAN CARLOS,CALLE,MARINA MAZATLAN,CALLE,SAN NICOLAS DE BARI,AVENIDA,JESUS,945.0,D,,,0.0,,COLONIA,RECIDENCIAL LAS MARGARITAS,,,,45130.0,14,Jalisco,120,Zapopan,1,Zapopan                                                                                                       ,3397,38,,,,Fijo,20.73949384,-103.41951917,2023-11
7076510,14120541941002591000000000U7,PETS IN ESTETICA CANINA,,812990,Otros servicios personales,0 a 5 personas,AVENIDA,NICOLAS COPERNICO,CALLE,PEDRO SIMON LAPLACE,AVENIDA,CARNERO,CALLE,PEZ AUSTRAL,4109.0,A,,,1.0,,COLONIA,ARBOLEDAS II,,,,45070.0,14,Jalisco,120,Zapopan,1,Zapopan                                                                                                       ,447A,12,3334465433.0,,,Fijo,20.63111319,-103.42426694,2019-11
1858382,14039711320000242011000000U2,PPMAN FABRICA DE EVENTOS,SOLUCIONES AQUI SA DE CV,812990,Otros servicios personales,0 a 5 personas,CALLE,SAN JOSE,CALLE,SANTO DOMINGO,CALLE,LA MERCED,CALLE,PARQUE DE LAS ESTRELLAS,1890.0,,,,0.0,,COLONIA,CHAPALITA,,,,44520.0,14,Jalisco,39,Guadalajara,1,Guadalajara                                                                                                   ,3317,8,3336148606.0,CORREO@PPMAN.MX,WWW.PPMAN.MX,Fijo,20.66088718,-103.39050264,2010-07
7865215,14039812990001942000000000U4,PROSTIBULO,,812990,Otros servicios personales,6 a 10 personas,CALLE,CASTELLANOS Y TAPIA,CALLE,ALVARO OBREGON,CALLE,GIGANTES,CALLE,BASILIO BADILLO,46.0,,,,0.0,,COLONIA,LA PENAL,,,,44730.0,14,Jalisco,39,Guadalajara,1,Guadalajara                                                                                                   ,1683,19,3324767389.0,,,Fijo,20.66743252,-103.31743687,2019-11
7865216,14039812990001953000000000U1,PROSTIBULO,,812990,Otros servicios personales,0 a 5 personas,CALLE,GIGANTES,CALLE,BASILIO BADILLO,CALLE,CASTELLANOS Y TAPIA,CALLE,ALVARO OBREGON,1319.0,,,,0.0,,COLONIA,LA PENAL,,,,44730.0,14,Jalisco,39,Guadalajara,1,Guadalajara                                                                                                   ,1683,19,,,,Fijo,20.66651635,-103.31743757,2019-11
7865214,14039812990001933000000000U3,PROSTIBULO,,812990,Otros servicios personales,6 a 10 personas,CALLE,CASTELLANOS Y TAPIA,CALLE,ALVARO OBREGON,CALLE,GIGANTES,CALLE,BASILIO BADILLO,1316.0,,,,0.0,,COLONIA,LA PENAL,,,,44730.0,14,Jalisco,39,Guadalajara,1,Guadalajara                                                                                                   ,1683,19,3324767388.0,,,Fijo,20.66704134,-103.31756798,2019-11
1706738,14120812990000841000000000U7,PUPPYS DE CONTRY,,812990,Otros servicios personales,0 a 5 personas,AVENIDA,JUAN PABLO II,CALLE,INDUSTRIA,CALLE,SARCOFAGO,CALLE,SAN JUAN,7835.0,,,,0.0,,COLONIA,TEPEYAC ZAPOPAN,,,,45150.0,14,Jalisco,120,Zapopan,1,Zapopan                                                                                                       ,027A,1,3336335160.0,,,Fijo,20.72491748,-103.38684286,2014-12
10426966,14120812990001591000000000U7,RIO VET,,812990,Otros servicios personales,0 a 5 personas,AVENIDA,RIO BLANCO,CALLE,NINGUNO,AVENIDA,ATARDECER,CALLE,CANAL,1874.0,A,,,,,COLONIA,CENTINELA I,,,,45133.0,14,Jalisco,120,Zapopan,1,Zapopan                                                                                                       ,4925,8,3333925453.0,,,Fijo,20.76500726,-103.39349536,2024-11
10758285,14101812990000351000000000U7,SANTERIA,,812990,Otros servicios personales,0 a 5 personas,AVENIDA,AVENIDA DE LAS PRADERAS,CALLE,PRADO DE LOS NOGALES,CALLE,PRADO DE LAS CEIBAS,CALLE,PRADO DE LOS ABEDULES,103.0,,,,,,MANZANA,CALLE,,,,45410.0,14,Jalisco,101,Tonalá,9,Coyula                                                                                                        ,1677,4,3333535275.0,,,Fijo,20.65083843,-103.22093613,2024-11
1691802,14120812990000561001000000U1,SEGURIDAD Y VIGILANCIA CANINA,,812990,Otros servicios personales,0 a 5 personas,CALLE,ALLENDE,AVENIDA,JALISCO,CALLE,VICENTE GUERRERO,CALLE,ALDAMA,187.0,A,,,0.0,,COLONIA,EL MANTE,,,,45235.0,14,Jalisco,120,Zapopan,1,Zapopan                                                                                                       ,2543,23,3318139063.0,,,Fijo,20.60569612,-103.4234112,2014-12
8389796,14039812990001771000000000U7,SERVICIOS PERSONALES SIN NOMBRE,,812990,Otros servicios personales,0 a 5 personas,CALLE,28 DE ENERO,PRIVADA,ANALCO,CALLE,CONSTITUCION,CALLE,5 DE MAYO,371.0,,,,,,COLONIA,ANALCO 20,,,,44450.0,14,Jalisco,39,Guadalajara,1,Guadalajara                                                                                                   ,1880,20,3323383206.0,,,Fijo,20.66850137,-103.34255447,2019-11
1679148,14039621311000021000000000U8,SOBADOR,,812990,Otros servicios personales,0 a 5 personas,CALLE,JULIAN CARRILLO,CALLE,HACIENDA DEL CARMEN,AVENIDA,ARTESANOS,CALLE,MARIA GREVER,1795.0,,,,0.0,,COLONIA,OBLATOS,,,,44700.0,14,Jalisco,39,Guadalajara,1,Guadalajara                                                                                                   ,3815,32,,,,Fijo,20.70303082,-103.29480141,2010-07
11109401,14039812990002351000000000U7,SPA CANINO,,812990,Otros servicios personales,0 a 5 personas,CALLE,PABLO VALDEZ,CALLE,JUAN R. ZAVALA,CALLE,PEDRO CELESTINO NEGRETE,CALLE,ESTEBAN ALATORRE,1386.0,,,,0.0,,COLONIA,SAN JUAN BOSCO,,,,44380.0,14,Jalisco,39,Guadalajara,1,Guadalajara                                                                                                   ,140A,20,,,,Fijo,20.68066676,-103.31957095,2024-11
10786367,14039812990002372000000000U3,SPA PARA CABALLEROS EROS,,812990,Otros servicios personales,6 a 10 personas,AVENIDA,HIDALGO,CALLE,BERNARDO DE BALBUENA,AVENIDA,AVENIDA DE LAS AMERICAS,CALLE,JUSTO SIERRA,1690.0,,,,0.0,,COLONIA,LADRON DE GUEVARA,,,,44600.0,14,Jalisco,39,Guadalajara,1,Guadalajara                                                                                                   ,1310,17,3347264145.0,,,Fijo,20.67680115,-103.37311453,2024-11
11604457,14039812990002311000000000U1,SPA PERROS,,812990,Otros servicios personales,0 a 5 personas,CALLE,PUERTO SOTO LA MARINA,CALLE,MESA DEL NORTE,CALLE,FRATERNIDAD,CALLE,SAN CELSO,2324.0,,,,,,COLONIA,SAN VICENTE,,,,44330.0,14,Jalisco,39,Guadalajara,1,Guadalajara                                                                                                   ,044A,18,3335552879.0,,,Fijo,20.70536077,-103.31403765,2024-11
8364841,14039812990001671000000000U9,TAROOLSIN NOMBRE,,812990,Otros servicios personales,0 a 5 personas,AVENIDA,BELISARIO DOMINGUEZ,CALLE,LOS ANDES,CALLE,MONTE AJUSCO,CALLE,MONTE PARNASO,1243.0,,,,0.0,,COLONIA,INDEPENDENCIA ORIENTE,,,,44340.0,14,Jalisco,39,Guadalajara,1,Guadalajara                                                                                                   ,0774,17,,,,Fijo,20.68956516,-103.3248344,2019-11
10829492,14039812990002041000000000U4,TAROT SANADOR,,812990,Otros servicios personales,0 a 5 personas,CALZADA,CALZADA DEL FEDERALISMO SUR,CALLE,MIGUEL BLANCO,CALLE,PRISCILIANO SANCHEZ,CALLE,PAVO,285.0,,,,2.0,,COLONIA,CENTRO,,,,44100.0,14,Jalisco,39,Guadalajara,1,Guadalajara                                                                                                   ,4550,8,,ADMIN@SANADOR.COM.MX,WWW.SANADOR.COM.MX,Fijo,20.67239582,-103.35451586,2024-11
10391693,14039812990002401000000000U0,TAROT Y LECTURA DE CARTAS Y CAFE,,812990,Otros servicios personales,0 a 5 personas,CALLE,FLORENCIA,AVENIDA,RUBEN DARIO,CALLE,ONTARIO,CALLE,TURIN,2707.0,,,,,,COLONIA,ITALIA PROVIDENCIA,,,,44640.0,14,Jalisco,39,Guadalajara,1,Guadalajara                                                                                                   ,0609,14,3338420794.0,GABRIELCABRERA05@GMAIL.COM,,Fijo,20.69411853,-103.38207271,2024-11
8867060,14039812990001891000000000U3,TAROTISTA SIN NOMBRE,,812990,Otros servicios personales,0 a 5 personas,AVENIDA,8 DE JULIO,AVENIDA,JESUS REYES HEROLES,CALLE,LUIS N. MORONES,CALLE,TEODOMIRO MANZANO,3814.0,1,,,0.0,,COLONIA,BALCONES DEL CUATRO,,,,44980.0,14,Jalisco,39,Guadalajara,1,Guadalajara                                                                                                   ,5506,24,3318290243.0,,,Fijo,20.61706029,-103.37416413,2019-11
11324170,14039812990002391000000000U3,TERAPIA ALTERNATIVA REYKIN,,812990,Otros servicios personales,0 a 5 personas,CALLE,ANDRES TERAN,CALLE,JUSTO SIERRA,CALLE,JUAN MANUEL,CALLE,GABRIEL RAMOS MILLAN,24.0,,,,,,COLONIA,CENTRO,,,,44600.0,14,Jalisco,39,Guadalajara,1,Guadalajara                                                                                                   ,1325,38,,JIRGEGIL_6605@HOTMAIL.COM,,Fijo,20.67823691,-103.36778925,2024-11
11565251,14120812990001611000000000U3,THE BLUE DOG,,812990,Otros servicios personales,0 a 5 personas,AVENIDA,PASEO NATURA,AVENIDA,MEDIO AMBIENTE,CALLE,PASEO NORTE,CALLE,PASEO NORTE,50.0,,BOSQUE NATURA,PLANTA BAJA,,,CONDOMINIO,NATURA,CENTRO Y PLAZA COMERCIAL,BOSQUE NATURA,5,45066.0,14,Jalisco,120,Zapopan,1,Zapopan                                                                                                       ,707A,5,3325184445.0,,,Fijo,20.62210775,-103.48021779,2024-11
10442253,14120812990001351000000000U6,TIC DOG SPA,,812990,Otros servicios personales,0 a 5 personas,CALLE,ARCO MARCO AURELIO,CALLE,ARCO DE TRAJANO,AVENIDA,TESISTAN,CALLE,ARCOS DE ALEJANDRO,489.0,,,,1.0,,COLONIA,ARCOS DE ZAPOPAN,,,,45130.0,14,Jalisco,120,Zapopan,1,Zapopan                                                                                                       ,2609,23,3315184929.0,,,Fijo,20.74169219,-103.41333198,2024-11
7811032,14039812990001851000000000U7,TIENDA ESOTERICA,,812990,Otros servicios personales,0 a 5 personas,CALLE,FRANCISCO CARDENAS LARIOS,CALLE,MIGUEL BERNAL,CALLE,ANDRES BELLO,CALLE,RUBEN RODRIGUEZ,117.0,,,,0.0,,COLONIA,SAN ANDRES,,,,44810.0,14,Jalisco,39,Guadalajara,1,Guadalajara                                                                                                   ,4512,22,3332703471.0,,,Fijo,20.6586584,-103.29017391,2019-11
10534181,14120812990001411000000000U8,TIENDA ESOTERICA SIN NOMBRE,,812990,Otros servicios personales,0 a 5 personas,CALLE,RIO TOMATLAN,CALLE,ENCINOS,AVENIDA,TABACHINES,CALLE,RIO CIHUATLAN,360.0,,,,,,COLONIA,LOMA BONITA EJIDAL,,,,45085.0,14,Jalisco,120,Zapopan,1,Zapopan                                                                                                       ,3128,44,3317475487.0,,,Fijo,20.62625488,-103.40433847,2024-11
7427104,14101812990000321000000000U0,VETERINARIA,,812990,Otros servicios personales,0 a 5 personas,CALLE,COYULA,CALLE,TUCAN,CALLE,JILGUERO,CALLE,COYULA,221.0,B,,,0.0,,COLONIA,ARCOS DE TONALA,,,,45406.0,14,Jalisco,101,Tonalá,1,Tonalá                                                                                                        ,1094,33,,,,Fijo,20.65970784,-103.23802633,2019-11
10093818,14120812990001671000000000S7,VETERINARIA AFRICAM,,812990,Otros servicios personales,0 a 5 personas,CALLE,GALILEO GALILEI,CALLE,SAGITARIO,AVENIDA,CARNERO,CALLE,ISAAC NEWTON,3992.0,A,,,,,COLONIA,ARBOLEDAS II,,,,45070.0,14,Jalisco,120,Zapopan,1,Zapopan                                                                                                       ,447A,25,,,,Fijo,20.62693981,-103.42435781,2024-11
1710520,14120812990000501000000000U7,VETERINARIA AMBAR,,812990,Otros servicios personales,0 a 5 personas,AVENIDA,ATEMAJAC,CALLE,FERNANDO LARIOS,CALLE,MANZANO BRISEŃO,CALLE,MARIA DE LA PEŃA,1359.0,A,,,,,COLONIA,SANTA PAULA,,,,45179.0,14,Jalisco,120,Zapopan,1,Zapopan                                                                                                       ,244A,14,,,,Fijo,20.72127023,-103.36378059,2014-12
1751219,14097812990000041000000000U4,VETERINARIA ANIMAL CENTRAL,,812990,Otros servicios personales,0 a 5 personas,CALLE,PUERTA DEL SOL,CALLE,ESTRELLA,CALLE,VIA LACTEA,CALLE,NINGUNO,65.0,,COMERCIALES REAL DEL SOL,PISO 1,15.0,,FRACCIONAMIENTO,REAL DEL SOL,PASAJE Y ANDADOR COMERCIAL,COMERCIALES REAL DEL SOL,15,45654.0,14,Jalisco,97,Tlajomulco de Zúńiga,833,Villas de la Hacienda [Fraccionamiento]                                                                       ,1865,10,3310396127.0,,,Fijo,20.53066272,-103.39144429,2014-12
1699652,14120812990000351000000000U7,VETERINARIA ANIMALES INN,ANIMALES INN SA DE CV,812990,Otros servicios personales,0 a 5 personas,CALLE,MANUEL AVILA CAMACHO,CALLE,MANUEL VILLALONGIN,CALLE,MANUEL AVILA CAMACHO,CALLE,GUADALAJARITA,640.0,10,,,11.0,,FRACCIONAMIENTO,ATLAS COLOMOS,,,,45118.0,14,Jalisco,120,Zapopan,1,Zapopan                                                                                                       ,2238,2,,CONTACTO@ANIMALES-INN.COM.MX,WWW.ANIMALESINN.COM.MX,Fijo,20.7135983,-103.3955869,2014-12
7113321,14120812990000991000000000U0,VETERINARIA ARI PETS,,812990,Otros servicios personales,0 a 5 personas,CALLE,MISION SAN ESTEBAN,CALLE,MISION SAN ANTONIO,AVENIDA,TEPEYAC,AVENIDA,NICOLAS COPERNICO,467.0,,PLAZA SAN ESTEBAN,PLANTA BAJA,23.0,,COLONIA,PLAZA GUADALUPE,CENTRO Y PLAZA COMERCIAL,PLAZA SAN ESTEBAN,23,45030.0,14,Jalisco,120,Zapopan,1,Zapopan                                                                                                       ,582A,4,3312705457.0,MVZGARI@HOTMAIL.COM,,Fijo,20.65556188,-103.43267798,2019-11
1828015,14120465911000051000000000U9,VETERINARIA BAMEX,,812990,Otros servicios personales,0 a 5 personas,CALLE,CUARTA NORTE,CALLE,DECIMA ORIENTE,CALLE,ELISEO OROZCO GUTIERREZ,CALLE,QUINTA NORTE,5515.0,A,,,,,COLONIA,JARDINES DE NUEVO MEXICO,,,,45138.0,14,Jalisco,120,Zapopan,1,Zapopan                                                                                                       ,6546,29,,,,Fijo,20.7676436,-103.4464748,2010-07
1705622,14120812990000401000000000U0,VETERINARIA BEST FRIENDS,,812990,Otros servicios personales,0 a 5 personas,AVENIDA,PASEO DE LAS AVES,AVENIDA,ACANTILADO,AVENIDA,LAS CANTERAS,AVENIDA,CAMINO A LAS MISIONES SUR,2665.0,3,,,3.0,,COLONIA,CANTERAS,,,,45133.0,14,Jalisco,120,Zapopan,1,Zapopan                                                                                                       ,6175,13,,,,Fijo,20.76314977,-103.38329119,2014-12
7592657,14120812990001171000000000U8,VETERINARIA CANINA PRICESS,,812990,Otros servicios personales,0 a 5 personas,CALLE,JUAN AGUIRRE,CALLE,CANTERA AMARILLA,CALLE,PLAN DE GUADALUPE,CALLE,GONZALEZ GALLO,176.0,,,,0.0,,COLONIA,ARROYO HONDO,,,,45180.0,14,Jalisco,120,Zapopan,1,Zapopan                                                                                                       ,2257,26,3310714905.0,,,Fijo,20.73996172,-103.35412384,2019-11
10423478,14120812990001491000000000U0,VETERINARIA CHIEN DE FETE,,812990,Otros servicios personales,0 a 5 personas,CALLE,DATIL,AVENIDA,VALDEPEŃAS,PRIVADA,PALMA ALEGRE,CALLE,OASIS,1770.0,,RINCONADA DE LAS PALMAS,PISO 1,3.0,B,COLONIA,LAS PALMAS,EDIFICIO COMERCIAL Y DE SERVICIOS,RINCONADA DE LAS PALMAS,3,45132.0,14,Jalisco,120,Zapopan,1,Zapopan                                                                                                       ,3433,4,3327975545.0,,,Fijo,20.75302107,-103.40071074,2024-11
1888228,14039812990000381000000000U6,VETERINARIA COLITAS,,812990,Otros servicios personales,0 a 5 personas,CALLE,FRAY JUNIPERO SERRA,CALLE,SILVESTRE REVUELTAS,CALLE,FRAY MANUEL NAJERA,CALLE,FRAY MANUEL NAJERA,909.0,A,,,0.0,,COLONIA,ALCALDE BARRANQUITAS,,,,44270.0,14,Jalisco,39,Guadalajara,1,Guadalajara                                                                                                   ,069A,12,3315577384.0,,,Fijo,20.69084625,-103.34428055,2010-07
1666577,14039812990001481000000000U3,VETERINARIA DIXI VET,,812990,Otros servicios personales,0 a 5 personas,CALLE,PUEBLA,CALLE,ARISTA,CALLE,GENERAL EULOGIO PARRA,CALZADA,CALZADA DEL FEDERALISMO NORTE,692.0,,,,0.0,,COLONIA,ARTESANOS,,,,44200.0,14,Jalisco,39,Guadalajara,1,Guadalajara                                                                                                   ,0990,17,,DARKJQ19@HOTMAIL.COM,,Fijo,20.68768326,-103.35522838,2014-12
8990387,14120812990001021000000000S5,VETERINARIA EL CENTINELA 2,,812990,Otros servicios personales,0 a 5 personas,CALLE,PASEO DEL CEDRO,CALLE,QUINTA DEL BOSQUE,CALLE,PASEO DEL CEDRO,CALLE,PASEO DE LOS EUCALIPTOS,14.0,,,,,,COLONIA,BOSQUES DEL CENTINELA II,,,,45187.0,14,Jalisco,120,Zapopan,1,Zapopan                                                                                                       ,5374,12,,FARMACIAVETERINARIACENTINELA@HOTMAIL.COM,,Fijo,20.75670986,-103.37918414,2019-11
1826687,14120434112000441000000000U5,VETERINARIA EL COLLIE,,812990,Otros servicios personales,0 a 5 personas,CALLE,PLAYA DE HORNOS,CALLE,PLAYA DE LOS MUERTOS,CALLE,PLAYA SANTIAGO,CALLE,PLAYA OLAS ALTAS,1146.0,,,,0.0,,COLONIA,COLLI PRIMAVERA,,,,45059.0,14,Jalisco,120,Zapopan,1,Zapopan                                                                                                       ,2990,36,,,,Fijo,20.64782442,-103.43074563,2010-07
10410178,14120812990001661000000000U8,VETERINARIA ESTETICA CANINA,,812990,Otros servicios personales,0 a 5 personas,CALLE,ANTIGUO CAMINO A TESISTAN,CALLE,VENUSTIANO CARRANZA,CALLE,FRANCISCO I MADERO,CALLE,MIGUEL HIDALGO,0.0,SN,,,,,COLONIA,LA PROVIDENCIA,,,,45200.0,14,Jalisco,120,Zapopan,62,La Cuchilla (Extramuros de Tesistán)                                                                          ,0208,2,3311970751.0,,,Fijo,20.77698993,-103.46522056,2024-11
1694185,14120812990000901000000000U9,VETERINARIA ESTETICA CANINA PETSSTATION,,812990,Otros servicios personales,0 a 5 personas,CALLE,PUERTO TAMPICO,CALLE,PUERTO ALVARADO,CALLE,PUERTO ISABEL,CALLE,PUERTO RICO,927.0,B,,,0.0,,COLONIA,MIRAMAR,,,,45060.0,14,Jalisco,120,Zapopan,1,Zapopan                                                                                                       ,1742,20,3316186622.0,,,Fijo,20.6400693,-103.44893351,2014-12
11522467,14120812990001481000000000S1,VETERINARIA HOTEL ESTETICA,,812990,Otros servicios personales,0 a 5 personas,CALLE,MIGUEL HIDALGO,CALLE,EMILIANO ZAPATA,CALLE,VENUSTIANO CARRANZA,CALLE,PIPILA,,SN,,,,,COLONIA,LA PROVIDENCIA,,,,45200.0,14,Jalisco,120,Zapopan,62,La Cuchilla (Extramuros de Tesistán)                                                                          ,0208,3,3313646620.0,,,Fijo,20.7745662,-103.46821335,2024-11
1894878,14039812110006211000000000U4,VETERINARIA LAURA PERRUQUERIA,,812990,Otros servicios personales,0 a 5 personas,AVENIDA,JESUS REYES HEROLES,CALLE,ISLAS MALVINAS,CALLE,ISLA GUAITECAS,CALLE,ISLA KINAROS,3265.0,,,,,,COLONIA,VILLA GUERRERO,,,,44987.0,14,Jalisco,39,Guadalajara,1,Guadalajara                                                                                                   ,464A,30,3311449584.0,,,Fijo,20.63111915,-103.39519685,2010-07
10975834,14039812990002131000000000U3,VETERINARIA LIVA DOGS,,812990,Otros servicios personales,0 a 5 personas,CALLE,ADOLFO CISNEROS,CALLE,ADOLFO CISNEROS,CALLE,52 (JERONIMO TREVIŃO),CALLE,JULIAN GRANADOS,2550.0,,,,,,COLONIA,LOPEZ PORTILLO,,,,44960.0,14,Jalisco,39,Guadalajara,1,Guadalajara                                                                                                   ,279A,29,3314389421.0,LIDIAVAL52@GMAIL.COM,,Fijo,20.62662506,-103.38271147,2024-11
9516524,14120812990001581000000000U8,VETERINARIA MAKAS,,812990,Otros servicios personales,0 a 5 personas,CALLE,FUENTE MARDRE PERLA,CALLE,NINGUNO,CALLE,NINGUNO,CALLE,FUENTE OBSIDIANA,8756.0,A,,,,A,COLONIA,VILLA FONTANA DIAMANTE,,,,45200.0,14,Jalisco,120,Zapopan,62,La Cuchilla (Extramuros de Tesistán)                                                                          ,0180,36,,,,Fijo,20.7721818,-103.47370466,2024-11
10436170,14070812990000062000000000U7,VETERINARIA MASCOTITAS,,812990,Otros servicios personales,6 a 10 personas,CALLE,HELIODORO HERNANDEZ LOZA,CALLE,NINGUNO,CALLE,JUAN ESCUTIA,ANDADOR,TOLUQUILLA,437.0,A,,,,,COLONIA,ALVAREZ DEL CASTILLO,,,,45680.0,14,Jalisco,70,El Salto,1,El Salto                                                                                                      ,0702,27,,,,Fijo,20.51319848,-103.18863602,2024-11
11636868,14039812990002471000000000U3,VETERINARIA MASCOTITLAN,,812990,Otros servicios personales,0 a 5 personas,CALLE,ESCORZA,CALLE,FERMIN RIESTRA,CALLE,LAZARO PEREZ,AVENIDA,ENRIQUE DIAZ DE LEON SUR,712.0,A,,,,,COLONIA,MODERNA,,,,44190.0,14,Jalisco,39,Guadalajara,1,Guadalajara                                                                                                   ,215A,12,3329394595.0,,,Fijo,20.66563136,-103.35831277,2024-11
11051345,14120812990001381000000000U3,VETERINARIA MASKOLANDIA,,812990,Otros servicios personales,0 a 5 personas,AVENIDA,VALLE DE ATEMAJAC,CALLE,SIERRA DE MAZAMITLA,CALLE,RIO ATENGUILLO,CALLE,RIO TEPALCATEPEC,1650.0,1,,,,,COLONIA,LAS AGUILAS,,,,45080.0,14,Jalisco,120,Zapopan,1,Zapopan                                                                                                       ,4395,14,3313882276.0,,,Fijo,20.62290803,-103.4150947,2024-11
1700801,14120812990000831000000000U8,VETERINARIA MUNDICAN,,812990,Otros servicios personales,0 a 5 personas,CALLE,ARCO DEL TRIUNFO,CALLE,ARCO DE TITO,CALLE,ARCO ARABIGO,CALLE,ARCO ELIPTICO,508.0,C,,,0.0,,COLONIA,ARCOS DE ZAPOPAN,,,,45130.0,14,Jalisco,120,Zapopan,1,Zapopan                                                                                                       ,2613,21,3335074820.0,,,Fijo,20.73918474,-103.40981488,2014-12
1710524,14120812990000461000000000U4,VETERINARIA PET 21,,812990,Otros servicios personales,0 a 5 personas,CALLE,COLINA AUREA,AVENIDA,ENRIQUE DIAZ DE LEON,AVENIDA,COLINAS DEL CAPITOLIO,CALLE,COLINA GALIA,2108.0,,,,,,COLONIA,COLINAS DE ATEMAJAC,,,,45170.0,14,Jalisco,120,Zapopan,1,Zapopan                                                                                                       ,244A,17,,,,Fijo,20.71983125,-103.36137489,2014-12
7592777,14120812990001181000000000U7,VETERINARIA SAFARI,,812990,Otros servicios personales,0 a 5 personas,CALLE,PASEO DE LAS CAOBAS,CALLE,CANTERA MORADA,CALLE,PASEO DE LAS TUYAS,CALLE,GIRASOL,3897.0,,,,0.0,,COLONIA,LA CANTERA,,,,45180.0,14,Jalisco,120,Zapopan,1,Zapopan                                                                                                       ,0890,5,,,,Fijo,20.74221839,-103.35640304,2019-11
11425959,14097812990000291000000000U5,VETERINARIA SMV,,812990,Otros servicios personales,0 a 5 personas,CALLE,LAGO NESS,CALLE,LAGO ZURICH,CALLE,MAR CARIBE,CALLE,LAGO IRAZU,0.0,SN,EDIFICIO SIN NOMBRE,PISO 1,,,FRACCIONAMIENTO,VILLA FONTANA AQUA,EDIFICIO COMERCIAL Y DE SERVICIOS,EDIFICIO COMERCIAL Y DE SERVICIOS SIN NOMBRE,7,45653.0,14,Jalisco,97,Tlajomulco de Zúńiga,822,Hacienda Santa Fe                                                                                             ,3077,19,,,,Fijo,20.5071018,-103.34676536,2024-11
1880959,14039812990001351000000000U8,VETERINARIA VALHALLA,,812990,Otros servicios personales,0 a 5 personas,CALLE,VOLCAN TELICA,CALLE,VOLCAN PELEE,CALLE,VOLCAN SAN FRANCISCO,CALLE,VOLCAN SAN FRANCISCO,5156.0,,,,0.0,,COLONIA,LOMAS DEL PARAISO III,,,,44250.0,14,Jalisco,39,Guadalajara,1,Guadalajara                                                                                                   ,4387,7,,,,Fijo,20.73174565,-103.31549031,2010-07
1643845,14098812990000101000000000U4,VETERINARIA VIMUR,,812990,Otros servicios personales,0 a 5 personas,CALLE,5 DE FEBRERO,CALLE,RIO JUAREZ,CALLE,REFORMA,CALLE,RIO LA PAZ,2758.0,A,,,0.0,,COLONIA,RANCHO BLANCO,,,,45560.0,14,Jalisco,98,San Pedro Tlaquepaque,1,Tlaquepaque                                                                                                   ,2413,8,3314404056.0,VETERINARI_VIMUR@HOTMAIL.COM,,Fijo,20.63818585,-103.31875103,2010-07
1706490,14120812990000571000000000U0,VETERINARIA ZOO-E,,812990,Otros servicios personales,0 a 5 personas,CALLE,PAULINO NAVARRO,CALLE,EVA ARCE DE RIVERA,CALLE,LUIS PEREZ VERDIA,CALLE,EPIGMENIO PRECIADO,769.0,,,,0.0,,COLONIA,LOS MAESTROS,,,,45180.0,14,Jalisco,120,Zapopan,1,Zapopan                                                                                                       ,4253,28,,,,Fijo,20.72315873,-103.37470478,2014-12
7625247,14120541941002211000000000U2,WALKING PETS,,812990,Otros servicios personales,0 a 5 personas,AVENIDA,TORREMOLINOS,CALLE,PASEO REY ARTURO,CALLE,PASEO BRAVO,CALLE,PASEO BRAVO,2565.0,,,,,,COLONIA,COLINAS DEL REY,,,,45130.0,14,Jalisco,120,Zapopan,1,Zapopan                                                                                                       ,2204,51,,,,Fijo,20.75009609,-103.40212696,2019-11
9829729,14039812990002201000000000U4,WONDER PUPPY SPA,,812990,Otros servicios personales,0 a 5 personas,AVENIDA,ENRIQUE DIAZ DE LEON NORTE,CALLE,JOAQUIN ANGULO,CALLE,GARIBALDI,CALLE,JUAN N. CUMPLIDO,350.0,,,,,,COLONIA,SANTA TERESITA,,,,44200.0,14,Jalisco,39,Guadalajara,1,Guadalajara                                                                                                   ,1113,4,3317546298.0,WONDERPUPPYSPA@GMAIL.COM,WWW.WONDERPUPPYSPA.COM,Fijo,20.68185225,-103.35911219,2024-11
6743347,14097812990000141001000000U2,YAMCAN,,812990,Otros servicios personales,0 a 5 personas,PROLONGACION,RAMON CORONA,CALLE,CAMINO REAL DE COLIMA,CALLE,NINGUNO,CALLE,NUESTRA SEŃORA DE SANTA ANA,664.0,A,,,,,FRACCIONAMIENTO,DEL PILAR RESIDENCIAL,,,,45645.0,14,Jalisco,97,Tlajomulco de Zúńiga,25,San Agustín                                                                                                   ,0458,2,3310558869.0,,,Fijo,20.55670727,-103.45788136,2016-10
